nom,adresse,arrondissement,latitude,longitude,type_cuisine,specialite,prix_fourchette,categorie_prix,note_moyenne,nb_avis,ambiance,telephone,reservation_recommandee
Bistrot Nouveau Gourmand,"36 boulevard Haussmann, 75018 Paris",75018,48.837475,2.350175,Grecque,Végan,20-30,Moyenne gamme,3.5,626,Romantique,0181359399,false
Laurent,"41 rue du Temple, 75014 Paris",75014,48.924054,2.341159,Indien,Sushi,30-50,Moyenne gamme,3.2,399,Cosy,0155548743,false
Paris & Moulin,"21 rue Vaugirard, 75010 Paris",75010,48.945404,2.397302,Street food,,30-50,Moyenne gamme,4.2,731,Branché,0115943947,false
Hubert & Joly,"72 rue Didot, 75012 Paris",75012,48.9088,2.344681,Vietnamien,Pizza,10-20,Bon marché,4.2,185,Calme,0130695844,false
Les Gallet,"15 rue Lepic, 75002 Paris",75002,48.84503,2.291927,Bistrot,Marocain,100+,Haut de gamme,4.8,332,Animé,0193736092,true
Table Français,"150 rue de la Convention, 75019 Paris",75019,48.871767,2.2608,Espagnol,,20-30,Moyenne gamme,4.0,103,Familial,0124299030,false
Henry & Labbé,"120 avenue de Clichy, 75009 Paris",75009,48.962149,2.398895,Végétarien,Chinois,100+,Haut de gamme,4.5,797,Festif,0124476530,true
Les Traore,"129 avenue Montaigne, 75017 Paris",75017,48.803311,2.407947,Tapas,Africain,100+,Haut de gamme,3.4,392,Décontracté,0179771086,true
Les Morvan,"62 rue de la Paix, 75008 Paris",75008,48.889705,2.353121,Végan,Méditerranéen,10-20,Bon marché,5.0,555,Élégant,0126947080,true
Chez Emmanuel,"139 rue Réaumur, 75007 Paris",75007,48.900012,2.28912,Bistrot,,30-50,Moyenne gamme,3.9,539,Authentique,0125413818,true
Chez Jeanne,"2 rue Saint-Honoré, 75002 Paris",75002,48.84131,2.330405,Italien,,10-20,Bon marché,4.0,295,Historique,0137792683,false
Briand & David,"49 boulevard Haussmann, 75004 Paris",75004,48.832336,2.326264,Vietnamien,Brasserie,10-20,Bon marché,4.3,671,Cosy,0117615323,true
Martinez & Morin,"47 rue de la Roquette, 75015 Paris",75015,48.836337,2.318177,Japonais,Gastronomique,10-20,Bon marché,3.1,563,Romantique,0121403162,true
Le Gourmand de la Tour,"117 rue Daguerre, 75014 Paris",75014,48.89931,2.335485,Caribéen,Brasserie,20-30,Moyenne gamme,3.4,232,Familial,0184791750,true
Goût de Paris,"131 rue Montorgueil, 75006 Paris",75006,48.911753,2.346089,Japonais,Burger,50-100,Haut de gamme,3.2,921,Calme,0184861589,true
Les Carpentier,"67 rue de Buci, 75011 Paris",75011,48.812454,2.286236,Coréen,Tapas,30-50,Moyenne gamme,3.9,961,Branché,0111688982,false
Les Rey,"34 avenue de Wagram, 75003 Paris",75003,48.81761,2.399282,Crêperie,Brésilien,100+,Haut de gamme,4.4,636,Convivial,0111958048,false
Les Bodin,"30 boulevard Haussmann, 75018 Paris",75018,48.872008,2.297036,Mexicain,Ramen,30-50,Moyenne gamme,3.4,659,Traditionnel,0174724216,true
Au Parisien de la Tour,"42 boulevard de Grenelle, 75018 Paris",75018,48.852404,2.402827,Gastronomique,Japonais,20-30,Moyenne gamme,4.1,864,Intime,0184802865,true
Guilbert,"54 boulevard de Magenta, 75008 Paris",75008,48.925216,2.306472,Vietnamien,,50-100,Haut de gamme,4.9,777,Élégant,0140303262,true
Auger & Delahaye,"64 rue de la Roquette, 75006 Paris",75006,48.832832,2.305805,Végan,Italien,50-100,Haut de gamme,3.4,846,Authentique,0154493938,true
Vasseur,"72 avenue de Wagram, 75017 Paris",75017,48.858767,2.383693,Caribéen,Végétarien,10-20,Bon marché,4.8,277,Décontracté,0184431423,false
Pons & Pruvost,"131 rue Oberkampf, 75013 Paris",75013,48.905936,2.362776,Burger,Grecque,10-20,Bon marché,4.0,835,Animé,0156651895,false
Robert,"77 rue Caulaincourt, 75010 Paris",75010,48.893149,2.250069,Thaïlandais,Pizza,100+,Haut de gamme,3.3,440,Terrasse,0196328882,true
Les Thierry,"54 rue de la Convention, 75019 Paris",75019,48.905274,2.265876,Thaïlandais,Brasserie,20-30,Moyenne gamme,4.0,822,Décontracté,0194204675,false
Chez Susan,"80 rue Lepic, 75007 Paris",75007,48.865276,2.317941,Italien,Brasserie,100+,Haut de gamme,4.7,84,Authentique,0163908334,false
Chez Hugues,"2 boulevard Haussmann, 75014 Paris",75014,48.901227,2.411507,Africain,Gastronomique,20-30,Moyenne gamme,4.8,134,Authentique,0127699577,false
Rocher & Briand,"130 rue de la Convention, 75018 Paris",75018,48.846682,2.263172,Libanais,,50-100,Haut de gamme,3.9,779,Calme,0191457672,false
Les Leblanc,"61 rue de la Roquette, 75011 Paris",75011,48.870682,2.285162,Caribéen,Fruits de mer,20-30,Moyenne gamme,3.8,166,Animé,0118636252,false
Lopes & Meyer,"100 boulevard Voltaire, 75001 Paris",75001,48.882999,2.296399,Sushi,Méditerranéen,10-20,Bon marché,4.9,315,Terrasse,0163787987,false
Fabre & Ledoux,"8 boulevard Raspail, 75011 Paris",75011,48.909267,2.273069,Coréen,,50-100,Haut de gamme,4.8,647,Romantique,0160858294,true
Marques & Henry,"47 rue de la Paix, 75009 Paris",75009,48.808855,2.411826,Marocain,Crêperie,50-100,Haut de gamme,3.6,984,Vue panoramique,0142207012,false
Chez Éric,"18 rue de Ménilmontant, 75002 Paris",75002,48.843561,2.312712,Burger,Français,100+,Haut de gamme,3.3,139,Historique,0195248237,true
Délice d'Or,"80 boulevard Haussmann, 75019 Paris",75019,48.931322,2.39455,Mexicain,Bistrot,50-100,Haut de gamme,4.9,213,Branché,0185989041,true
Délice Parisien,"11 avenue de Wagram, 75018 Paris",75018,48.878156,2.276008,Vietnamien,Tapas,30-50,Moyenne gamme,3.0,440,Historique,0123655691,false
Chez Alex,"134 rue de Ménilmontant, 75009 Paris",75009,48.841457,2.329,Caribéen,,50-100,Haut de gamme,3.9,758,Traditionnel,0151412145,false
Menu Royal,"8 boulevard Barbès, 75011 Paris",75011,48.922413,2.333058,Marocain,Pizza,30-50,Moyenne gamme,3.6,620,Traditionnel,0181117634,true
Chez Étienne,"122 rue de Ménilmontant, 75016 Paris",75016,48.926809,2.306235,Français,Burger,50-100,Haut de gamme,4.4,323,Intime,0170807754,true
Pelletier & Barre,"70 avenue de l'Opéra, 75009 Paris",75009,48.966023,2.339188,Marocain,Ramen,100+,Haut de gamme,4.9,716,Décontracté,0134377145,false
Les Texier,"26 rue du Faubourg Saint-Antoine, 75010 Paris",75010,48.927975,2.26744,Libanais,Ramen,100+,Haut de gamme,3.3,56,Familial,0180479926,false
Cuisine Savoureux des Saveurs,"88 avenue Montaigne, 75002 Paris",75002,48.842192,2.344872,Méditerranéen,Végan,50-100,Haut de gamme,4.0,600,Familial,0129298248,true
Aubry & Bertrand,"58 avenue de Clichy, 75013 Paris",75013,48.912273,2.2767,Brésilien,Street food,50-100,Haut de gamme,3.6,645,Familial,0188223690,true
Chez Nathalie,"142 rue Saint-Honoré, 75006 Paris",75006,48.844974,2.384512,Brésilien,Brasserie,30-50,Moyenne gamme,3.1,305,Moderne,0199681997,true
Assiette Impérial,"30 rue du Commerce, 75008 Paris",75008,48.917075,2.368955,Américain,,10-20,Bon marché,3.1,821,Moderne,0186824666,true
Les Jacques,"129 rue du Commerce, 75016 Paris",75016,48.969927,2.364288,Italien,,30-50,Moyenne gamme,4.2,36,Branché,0139968385,false
Les Regnier,"148 boulevard Saint-Germain, 75006 Paris",75006,48.913923,2.395815,Brésilien,,20-30,Moyenne gamme,5.0,456,Historique,0121705462,true
Les Denis,"106 rue du Temple, 75016 Paris",75016,48.940238,2.250196,Coréen,,100+,Haut de gamme,3.1,100,Festif,0142512461,false
Palais Impérial,"14 rue du Faubourg Saint-Antoine, 75017 Paris",75017,48.965435,2.353508,Méditerranéen,Sushi,10-20,Bon marché,3.4,572,Élégant,0146669972,true
Chez Alexandria,"41 avenue de l'Opéra, 75018 Paris",75018,48.882025,2.330277,Grecque,Végan,50-100,Haut de gamme,4.9,673,Élégant,0173477544,true
Chevalier & Courtois,"142 rue Cler, 75013 Paris",75013,48.850754,2.349779,Africain,,20-30,Moyenne gamme,4.7,292,Vue panoramique,0153744410,true
Cousin & Techer,"39 boulevard de Grenelle, 75018 Paris",75018,48.931843,2.25742,Thaïlandais,Gastronomique,50-100,Haut de gamme,3.9,339,Animé,0199408359,true
Maurice & Étienne,"98 boulevard Raspail, 75005 Paris",75005,48.869696,2.361313,Italien,Street food,30-50,Moyenne gamme,4.7,905,Authentique,0122776811,false
Chez Hortense,"20 rue de la Gaîté, 75009 Paris",75009,48.916348,2.298854,Coréen,Crêperie,100+,Haut de gamme,3.8,334,Historique,0179148918,true
Chez Léon,"24 rue de la Convention, 75004 Paris",75004,48.873217,2.291514,Ramen,,50-100,Haut de gamme,3.3,316,Romantique,0115511747,true
Fischer & Muller,"145 boulevard de Magenta, 75006 Paris",75006,48.913363,2.402814,Japonais,Bistrot,100+,Haut de gamme,4.4,519,Élégant,0139699142,true
Lambert & Peltier,"74 boulevard de Magenta, 75018 Paris",75018,48.865398,2.332145,Brésilien,,100+,Haut de gamme,3.6,995,Vue panoramique,0198426848,true
Chez Michel,"98 avenue Parmentier, 75012 Paris",75012,48.859895,2.358225,Mexicain,Tapas,50-100,Haut de gamme,3.5,589,Familial,0187734639,false
Chez Pénélope,"25 boulevard de la Villette, 75002 Paris",75002,48.948998,2.312196,Brésilien,Crêperie,20-30,Moyenne gamme,3.2,312,Festif,0163323526,false
Table d'Or,"66 rue de la Gaîté, 75010 Paris",75010,48.934416,2.252366,Crêperie,,50-100,Haut de gamme,4.9,154,Calme,0196966081,true
Délice Impérial,"95 boulevard de Magenta, 75009 Paris",75009,48.878925,2.369183,Vietnamien,Burger,50-100,Haut de gamme,3.1,915,Festif,0188389218,false
Charpentier & Chevalier,"30 rue Mouffetard, 75002 Paris",75002,48.918402,2.341833,Pizza,,10-20,Bon marché,3.2,918,Élégant,0159685795,false
Goût Impérial,"26 boulevard Barbès, 75020 Paris",75020,48.966233,2.310975,Américain,Crêperie,20-30,Moyenne gamme,3.9,983,Calme,0156229757,false
Rey & Roussel,"71 rue du Faubourg Saint-Antoine, 75004 Paris",75004,48.930077,2.285217,Brasserie,Marocain,100+,Haut de gamme,4.9,61,Festif,0141268236,true
Chez Roger,"85 rue Cler, 75020 Paris",75020,48.934033,2.350105,Indien,,100+,Haut de gamme,3.5,188,Cosy,0194132611,true
La Vieux de la Place,"108 avenue de Clichy, 75004 Paris",75004,48.877867,2.413884,Brasserie,Vietnamien,100+,Haut de gamme,4.2,472,Convivial,0138881594,false
Bousquet,"103 rue de la Convention, 75004 Paris",75004,48.855282,2.419087,Brésilien,Végan,30-50,Moyenne gamme,4.2,77,Élégant,0145899184,false
Table Impérial,"130 rue Saint-Maur, 75014 Paris",75014,48.867784,2.374034,Chinois,,100+,Haut de gamme,4.4,230,Vue panoramique,0167396253,false
Les Marchal,"110 rue de Turbigo, 75009 Paris",75009,48.899699,2.34547,Indien,Brasserie,10-20,Bon marché,3.2,97,Branché,0165225726,false
Les Goncalves,"32 rue de la Pompe, 75012 Paris",75012,48.838122,2.268397,Sushi,Italien,30-50,Moyenne gamme,4.2,370,Cosy,0183743729,false
Cuisine de Paris,"72 avenue Parmentier, 75008 Paris",75008,48.846456,2.37961,Gastronomique,,100+,Haut de gamme,4.2,668,Romantique,0187949844,true
Les Lemaître,"90 rue de Rivoli, 75006 Paris",75006,48.82676,2.302978,Street food,Japonais,20-30,Moyenne gamme,4.5,41,Branché,0177375863,true
Les Monnier,"146 rue Saint-Maur, 75003 Paris",75003,48.92834,2.269349,Fruits de mer,Italien,10-20,Bon marché,3.5,687,Vue panoramique,0172876663,true
Lacroix & Leconte,"29 rue Daguerre, 75019 Paris",75019,48.801314,2.376992,Mexicain,Bistrot,100+,Haut de gamme,3.1,219,Moderne,0137274247,true
Chez René,"34 boulevard Raspail, 75018 Paris",75018,48.897879,2.347478,Gastronomique,Vietnamien,10-20,Bon marché,3.8,769,Familial,0165126819,false
Boutin & Normand,"75 rue Oberkampf, 75013 Paris",75013,48.868076,2.26337,Thaïlandais,Street food,50-100,Haut de gamme,4.7,951,Intime,0121652341,true
Les Jourdan,"87 rue Lepic, 75011 Paris",75011,48.843515,2.279495,Végan,Chinois,100+,Haut de gamme,4.0,937,Intime,0154922840,true
Chez David,"20 avenue Montaigne, 75016 Paris",75016,48.851479,2.296695,Brésilien,Street food,100+,Haut de gamme,3.6,652,Festif,0129661870,true
Les Bon des Saveurs,"116 boulevard Saint-Germain, 75002 Paris",75002,48.897182,2.282001,Mexicain,Végan,100+,Haut de gamme,4.2,403,Authentique,0184801567,false
Palais Parisien,"39 rue de la Paix, 75015 Paris",75015,48.826987,2.313385,Thaïlandais,,10-20,Bon marché,4.0,186,Familial,0141666677,false
Les Raynaud,"100 rue de la Pompe, 75011 Paris",75011,48.856672,2.349066,Italien,,30-50,Moyenne gamme,3.1,106,Terrasse,0146429487,false
Chez Luce,"90 avenue de l'Opéra, 75013 Paris",75013,48.803099,2.302507,Japonais,Bistrot,30-50,Moyenne gamme,4.6,696,Convivial,0121929564,false
Chez Jean,"88 boulevard Barbès, 75007 Paris",75007,48.864042,2.277582,Indien,Pizza,10-20,Bon marché,4.0,562,Convivial,0114945389,true
Goût Français,"113 boulevard Saint-Germain, 75014 Paris",75014,48.933343,2.403676,Espagnol,,100+,Haut de gamme,3.6,776,Authentique,0139784049,false
Chez Élisabeth,"95 boulevard de Magenta, 75019 Paris",75019,48.8817,2.313106,Brasserie,,50-100,Haut de gamme,4.0,438,Décontracté,0135872742,true
Goncalves,"133 rue Oberkampf, 75010 Paris",75010,48.885341,2.290082,Libanais,Gastronomique,20-30,Moyenne gamme,4.7,103,Calme,0167541363,true
Le Délicieux de Paris,"86 rue Cler, 75005 Paris",75005,48.92363,2.339721,Méditerranéen,Fruits de mer,50-100,Haut de gamme,3.9,15,Branché,0112423729,false
Riou,"61 avenue de l'Opéra, 75004 Paris",75004,48.841129,2.274408,Grecque,Street food,50-100,Haut de gamme,3.1,866,Historique,0186781290,false
Lagarde & Pascal,"1 rue de Belleville, 75012 Paris",75012,48.866377,2.329923,Grecque,Tapas,10-20,Bon marché,4.0,379,Branché,0177797474,false
Vasseur & Pottier,"96 boulevard de Clichy, 75001 Paris",75001,48.909275,2.391165,Japonais,Ramen,10-20,Bon marché,4.5,762,Festif,0127155579,true
Germain & Lecoq,"123 boulevard de la Villette, 75006 Paris",75006,48.968151,2.342315,Végan,,50-100,Haut de gamme,3.1,216,Familial,0135155049,false
Les Diallo,"10 rue de Ménilmontant, 75007 Paris",75007,48.831759,2.367652,Italien,,30-50,Moyenne gamme,3.5,828,Intime,0165616659,true
Les Lefèvre,"133 rue de la Roquette, 75003 Paris",75003,48.922003,2.27833,Végan,Libanais,100+,Haut de gamme,3.6,115,Branché,0151944749,true
Rolland & David,"90 boulevard de Grenelle, 75002 Paris",75002,48.936186,2.3655,Crêperie,Grecque,30-50,Moyenne gamme,4.3,820,Familial,0119959161,true
Table Petit du Chef,"18 rue des Rosiers, 75012 Paris",75012,48.853446,2.297377,Italien,Tapas,50-100,Haut de gamme,4.9,390,Authentique,0119832777,true
Aux Savoureux des Délices,"100 rue Vaugirard, 75004 Paris",75004,48.952775,2.325669,Américain,,20-30,Moyenne gamme,5.0,302,Historique,0135252719,true
Maréchal,"82 avenue de la République, 75012 Paris",75012,48.934651,2.290245,Gastronomique,Mexicain,20-30,Moyenne gamme,4.4,959,Décontracté,0156753825,false
Royer & François,"7 place Vendôme, 75018 Paris",75018,48.930758,2.389968,Brésilien,,100+,Haut de gamme,3.3,915,Branché,0118496071,false
Café Parisien de Paris,"116 rue Didot, 75017 Paris",75017,48.854852,2.370586,Caribéen,Fruits de mer,20-30,Moyenne gamme,3.9,942,Familial,0125762948,true
Les Lecomte,"133 rue Daguerre, 75003 Paris",75003,48.911985,2.372508,Caribéen,Tapas,30-50,Moyenne gamme,4.2,105,Convivial,0192318584,true
Cuisine Parisien,"11 avenue des Champs-Élysées, 75003 Paris",75003,48.851356,2.291629,Américain,Sushi,100+,Haut de gamme,3.8,664,Romantique,0173907947,false
Duhamel & Wagner,"77 rue Didot, 75003 Paris",75003,48.862992,2.345481,Libanais,Brasserie,50-100,Haut de gamme,3.4,631,Élégant,0150505461,true
Les Gomes,"62 rue Didot, 75004 Paris",75004,48.832272,2.277088,Espagnol,Végétarien,30-50,Moyenne gamme,4.9,894,Vue panoramique,0141305183,false
Bègue & Didier,"6 rue Montorgueil, 75013 Paris",75013,48.950017,2.373676,Espagnol,Crêperie,10-20,Bon marché,3.1,516,Historique,0146781123,true
Delaunay & Weiss,"94 boulevard Saint-Germain, 75013 Paris",75013,48.821873,2.266436,Caribéen,Gastronomique,30-50,Moyenne gamme,3.1,526,Authentique,0180458997,false
Les Albert,"87 rue Vaugirard, 75012 Paris",75012,48.951832,2.273763,Burger,Coréen,100+,Haut de gamme,3.1,49,Élégant,0152707668,true
Cuisine d'Or,"101 rue de Belleville, 75010 Paris",75010,48.966583,2.349229,Africain,,100+,Haut de gamme,4.0,586,Moderne,0170125752,false
Bistrot Parisien des Gourmets,"148 rue Lepic, 75002 Paris",75002,48.818682,2.253219,Libanais,Ramen,100+,Haut de gamme,4.5,399,Élégant,0197411483,false
Les Meunier,"108 rue Cler, 75014 Paris",75014,48.912579,2.339331,Grecque,Street food,50-100,Haut de gamme,4.7,763,Familial,0127763681,true
Les Aubry,"45 rue Didot, 75018 Paris",75018,48.966984,2.3811,Vietnamien,Ramen,30-50,Moyenne gamme,4.2,206,Calme,0145814838,false
Chez Guillaume,"126 rue de Turbigo, 75016 Paris",75016,48.813435,2.407082,Américain,Street food,100+,Haut de gamme,3.8,414,Intime,0128471546,false
Les Hoarau,"123 rue de Buci, 75007 Paris",75007,48.839582,2.267034,Pizza,,30-50,Moyenne gamme,3.3,640,Calme,0141169577,true
Les Vallet,"121 boulevard Haussmann, 75005 Paris",75005,48.909803,2.404349,Caribéen,,20-30,Moyenne gamme,3.8,967,Historique,0171933546,true
L'Assiette Royal de la Place,"10 avenue Montaigne, 75014 Paris",75014,48.902473,2.407837,Fruits de mer,,10-20,Bon marché,5.0,416,Historique,0133471411,true
Les Guilbert,"73 rue Didot, 75018 Paris",75018,48.831654,2.375225,Indien,,50-100,Haut de gamme,3.5,838,Cosy,0152306892,true
Les Tanguy,"146 boulevard de Magenta, 75007 Paris",75007,48.801161,2.315208,Coréen,,100+,Haut de gamme,3.7,420,Cosy,0133277151,false
Charles & Letellier,"69 rue du Cherche-Midi, 75010 Paris",75010,48.95217,2.369605,Français,Crêperie,20-30,Moyenne gamme,3.1,131,Authentique,0149306197,false
Les Mary,"31 boulevard de la Villette, 75010 Paris",75010,48.936339,2.390353,Espagnol,Fruits de mer,50-100,Haut de gamme,3.3,775,Intime,0163998070,false
Chez Aurélie,"21 avenue de Clichy, 75015 Paris",75015,48.945263,2.325113,Vietnamien,Street food,10-20,Bon marché,3.1,570,Convivial,0135837829,true
Chez Isabelle,"150 boulevard Barbès, 75003 Paris",75003,48.852389,2.253701,Brasserie,,50-100,Haut de gamme,3.3,435,Authentique,0182178169,false
Les Alexandre,"1 rue de Buci, 75019 Paris",75019,48.823023,2.359059,Grecque,Végan,100+,Haut de gamme,5.0,967,Branché,0170144662,true
Étienne & Vasseur,"96 boulevard Raspail, 75015 Paris",75015,48.966383,2.39192,Bistrot,Caribéen,20-30,Moyenne gamme,4.3,366,Cosy,0132786077,true
Grégoire,"119 boulevard de Magenta, 75018 Paris",75018,48.930229,2.400239,Coréen,,20-30,Moyenne gamme,3.9,168,Traditionnel,0134241494,true
Les Grand des Gourmets,"9 boulevard de Grenelle, 75020 Paris",75020,48.955787,2.347939,Italien,Végétarien,50-100,Haut de gamme,3.9,562,Animé,0117277447,true
Les Faivre,"37 avenue de la République, 75017 Paris",75017,48.965289,2.41007,Mexicain,Gastronomique,100+,Haut de gamme,4.8,943,Décontracté,0190966481,true
Rousseau & Masson,"135 rue de Turbigo, 75014 Paris",75014,48.964524,2.344739,Mexicain,Sushi,100+,Haut de gamme,3.9,879,Calme,0148286917,false
Chez Honoré,"100 rue des Rosiers, 75009 Paris",75009,48.806723,2.262373,Japonais,,30-50,Moyenne gamme,3.2,751,Animé,0116445896,false
Chez Lorraine,"86 avenue de l'Opéra, 75001 Paris",75001,48.840686,2.304675,Marocain,,10-20,Bon marché,4.5,782,Historique,0141998736,true
Les Leroux,"98 rue Didot, 75018 Paris",75018,48.895629,2.287617,Mexicain,Gastronomique,50-100,Haut de gamme,3.9,832,Historique,0150365750,true
Chez Sophie,"5 boulevard de Clichy, 75018 Paris",75018,48.960389,2.307386,Street food,,30-50,Moyenne gamme,3.3,347,Calme,0158824173,false
Bazin & Briand,"126 rue Didot, 75006 Paris",75006,48.801085,2.273374,Crêperie,Caribéen,50-100,Haut de gamme,3.4,920,Familial,0177141995,true
Chez Jeannine,"18 rue de Bretagne, 75005 Paris",75005,48.869928,2.252843,Africain,Végétarien,100+,Haut de gamme,4.3,966,Historique,0194721210,false
Les Andre,"138 rue Daguerre, 75001 Paris",75001,48.938586,2.295445,Grecque,,20-30,Moyenne gamme,3.2,108,Convivial,0129403489,false
Collin & Weber,"21 place Vendôme, 75013 Paris",75013,48.864119,2.330921,Espagnol,,20-30,Moyenne gamme,3.6,857,Branché,0193931421,true
Evrard,"22 boulevard Barbès, 75014 Paris",75014,48.812639,2.407349,Thaïlandais,Végan,100+,Haut de gamme,4.8,245,Animé,0198827044,true
Saveur d'Or,"81 avenue des Champs-Élysées, 75007 Paris",75007,48.823792,2.418041,Coréen,,30-50,Moyenne gamme,3.3,256,Terrasse,0196795259,false
Restaurant Petit de Paris,"112 rue Lepic, 75003 Paris",75003,48.873414,2.365548,Coréen,,30-50,Moyenne gamme,3.1,289,Authentique,0172395580,false
Deschamps & Lenoir,"22 rue de Belleville, 75010 Paris",75010,48.960303,2.325605,Ramen,Américain,20-30,Moyenne gamme,3.8,812,Élégant,0159505623,true
Les Dubois,"27 rue Mouffetard, 75003 Paris",75003,48.946832,2.252098,Brésilien,Gastronomique,50-100,Haut de gamme,3.2,101,Intime,0180218686,false
Bazin & Mace,"100 rue Montorgueil, 75018 Paris",75018,48.846914,2.300958,Burger,Libanais,50-100,Haut de gamme,3.3,285,Moderne,0144732818,true
L'Assiette Traditionnel du Coin,"127 rue Saint-Maur, 75020 Paris",75020,48.946116,2.415618,Chinois,Végétarien,50-100,Haut de gamme,3.7,645,Terrasse,0152665265,false
Chez Gabriel,"77 rue de Turbigo, 75020 Paris",75020,48.933597,2.312053,Burger,Libanais,50-100,Haut de gamme,4.9,308,Historique,0183415158,true
Assiette Parisien,"140 avenue Montaigne, 75018 Paris",75018,48.841144,2.361973,Brésilien,,20-30,Moyenne gamme,3.9,308,Branché,0162967327,false
Normand & Regnier,"97 rue Saint-Honoré, 75015 Paris",75015,48.891274,2.358491,Brasserie,Caribéen,100+,Haut de gamme,4.8,900,Vue panoramique,0179145699,false
L'Assiette Parisien du Coin,"91 rue des Martyrs, 75020 Paris",75020,48.888196,2.348688,Coréen,,30-50,Moyenne gamme,4.9,450,Cosy,0111224338,false
Les Hamel,"101 rue Didot, 75019 Paris",75019,48.933326,2.33859,Indien,Végétarien,50-100,Haut de gamme,3.2,435,Branché,0124285449,true
Les Da Costa,"122 boulevard Haussmann, 75015 Paris",75015,48.958087,2.375883,Brasserie,Mexicain,10-20,Bon marché,4.6,127,Romantique,0153922396,false
Goût Parisien,"41 rue du Cherche-Midi, 75018 Paris",75018,48.873024,2.250757,Brésilien,Bistrot,20-30,Moyenne gamme,3.4,683,Vue panoramique,0160138835,true
Chez Pauline,"53 rue de la Roquette, 75003 Paris",75003,48.866732,2.269419,Caribéen,Crêperie,20-30,Moyenne gamme,3.9,278,Historique,0177915086,true
Les Clerc,"118 rue de Belleville, 75006 Paris",75006,48.863462,2.274031,Ramen,,100+,Haut de gamme,4.2,698,Élégant,0150254049,true
Leblanc & Marie,"108 rue Saint-Maur, 75005 Paris",75005,48.853479,2.32667,Grecque,Tapas,100+,Haut de gamme,4.4,670,Décontracté,0181317246,true
Gay,"3 boulevard Barbès, 75005 Paris",75005,48.805246,2.37938,Coréen,,100+,Haut de gamme,4.3,428,Historique,0163667231,true
Les Barbier,"9 rue de la Roquette, 75008 Paris",75008,48.931769,2.389958,Libanais,,100+,Haut de gamme,4.5,794,Historique,0180752483,true
Les De Sousa,"139 boulevard Saint-Germain, 75015 Paris",75015,48.819956,2.388021,Grecque,Tapas,20-30,Moyenne gamme,3.6,43,Authentique,0143542166,false
Chez Adrien,"90 rue de Bretagne, 75020 Paris",75020,48.828624,2.41643,Libanais,Sushi,20-30,Moyenne gamme,4.6,834,Familial,0182547845,false
Les Mace,"75 avenue Parmentier, 75009 Paris",75009,48.822557,2.274861,Gastronomique,,10-20,Bon marché,3.3,778,Vue panoramique,0117459326,false
Les Fouquet,"64 boulevard de Magenta, 75013 Paris",75013,48.862742,2.411543,Américain,Bistrot,50-100,Haut de gamme,3.2,823,Branché,0161754598,false
Les Charles,"149 rue de Rivoli, 75003 Paris",75003,48.848211,2.343043,Brasserie,Vietnamien,10-20,Bon marché,4.6,417,Animé,0164377344,true
Chez Constance,"145 boulevard Barbès, 75011 Paris",75011,48.917061,2.272425,Sushi,Chinois,50-100,Haut de gamme,3.0,961,Décontracté,0166681064,true
Les Ledoux,"41 rue de la Roquette, 75003 Paris",75003,48.816181,2.286282,Américain,Tapas,20-30,Moyenne gamme,3.1,650,Moderne,0199396493,true
L'Assiette Royal du Coin,"114 rue de Rivoli, 75001 Paris",75001,48.862485,2.300873,Chinois,,50-100,Haut de gamme,4.4,499,Branché,0139592123,true
Colin & Guillou,"35 rue de Ménilmontant, 75005 Paris",75005,48.814737,2.267079,Français,Fruits de mer,50-100,Haut de gamme,3.7,228,Élégant,0162889766,false
Auberge Délicieux du Palais,"81 rue Mouffetard, 75008 Paris",75008,48.83207,2.316598,Japonais,Street food,100+,Haut de gamme,4.4,301,Romantique,0194483676,false
Toussaint,"62 boulevard Barbès, 75013 Paris",75013,48.892881,2.279371,Méditerranéen,Végan,100+,Haut de gamme,4.8,22,Intime,0150265982,true
Riou & Guillou,"19 avenue des Champs-Élysées, 75019 Paris",75019,48.891216,2.354728,Américain,Végétarien,50-100,Haut de gamme,4.0,653,Convivial,0163649961,true
Maison Nouveau du Chef,"138 rue de Turbigo, 75013 Paris",75013,48.913234,2.361869,Japonais,Bistrot,20-30,Moyenne gamme,3.1,98,Vue panoramique,0124688887,true
Chez Louis,"31 rue de Rivoli, 75005 Paris",75005,48.82007,2.402983,Fruits de mer,Vietnamien,100+,Haut de gamme,4.0,852,Traditionnel,0131572644,false
Les Brunet,"110 rue de la Roquette, 75017 Paris",75017,48.9146,2.269607,Japonais,Gastronomique,30-50,Moyenne gamme,3.1,889,Décontracté,0157304223,false
Saveur de Paris,"4 rue des Rosiers, 75002 Paris",75002,48.870764,2.372449,Coréen,,20-30,Moyenne gamme,4.9,888,Familial,0180936338,true
Les Besson,"20 avenue Parmentier, 75012 Paris",75012,48.894026,2.251355,Italien,Sushi,100+,Haut de gamme,5.0,986,Terrasse,0118694649,true
Chez Paulette,"75 avenue Parmentier, 75010 Paris",75010,48.858892,2.392728,Burger,Méditerranéen,20-30,Moyenne gamme,4.5,569,Calme,0129106213,true
Gimenez,"1 avenue de la République, 75013 Paris",75013,48.83935,2.393736,Ramen,Marocain,100+,Haut de gamme,5.0,439,Historique,0117284521,true
Martin & Joseph,"96 rue Didot, 75003 Paris",75003,48.853552,2.386139,Africain,Bistrot,10-20,Bon marché,4.2,73,Vue panoramique,0194264047,true
Les Breton,"82 boulevard de Grenelle, 75009 Paris",75009,48.860909,2.380957,Marocain,Sushi,100+,Haut de gamme,3.2,118,Décontracté,0167695062,true
Camus & Moreau,"79 rue Didot, 75009 Paris",75009,48.808322,2.300803,Végan,Mexicain,100+,Haut de gamme,3.1,865,Festif,0128214155,true
Chez Frédéric,"8 rue de Passy, 75015 Paris",75015,48.868099,2.366668,Caribéen,Brasserie,10-20,Bon marché,4.6,153,Cosy,0111173826,true
Bistrot Moderne de Paris,"6 rue Saint-Honoré, 75007 Paris",75007,48.89756,2.389687,Brasserie,,10-20,Bon marché,4.8,859,Festif,0125156916,true
Étienne & Le Gall,"128 avenue des Champs-Élysées, 75013 Paris",75013,48.850168,2.320039,Libanais,Fruits de mer,30-50,Moyenne gamme,3.6,914,Élégant,0114888988,true
Palais de Paris,"23 rue de la Roquette, 75013 Paris",75013,48.858486,2.346161,Marocain,Sushi,100+,Haut de gamme,3.5,831,Romantique,0158557179,false
Les Dupuis,"100 rue de la Roquette, 75006 Paris",75006,48.911667,2.29531,Espagnol,Sushi,30-50,Moyenne gamme,3.1,493,Convivial,0155843930,true
Guillot,"57 avenue Parmentier, 75013 Paris",75013,48.895813,2.345729,Libanais,Street food,30-50,Moyenne gamme,4.6,724,Intime,0185139955,false
Chez Édouard,"127 rue du Commerce, 75010 Paris",75010,48.857929,2.280168,Italien,Burger,100+,Haut de gamme,3.4,549,Historique,0110528835,false
Les Clément,"16 avenue des Champs-Élysées, 75005 Paris",75005,48.8513,2.273197,Indien,,100+,Haut de gamme,4.7,993,Branché,0157946085,true
Chez Nath,"112 boulevard de la Villette, 75016 Paris",75016,48.924779,2.300068,Libanais,,100+,Haut de gamme,4.4,961,Intime,0138958532,true
Chez Claire,"1 rue du Temple, 75019 Paris",75019,48.967005,2.278541,Italien,Crêperie,100+,Haut de gamme,3.4,589,Cosy,0173285219,true
Samson,"86 boulevard de Grenelle, 75001 Paris",75001,48.950374,2.333824,Espagnol,Crêperie,30-50,Moyenne gamme,4.6,747,Romantique,0116596663,false
Gosselin & Marchand,"90 rue du Commerce, 75013 Paris",75013,48.854182,2.411783,Méditerranéen,,100+,Haut de gamme,4.3,713,Calme,0130671914,true
Auberge Vieux de la Place,"20 rue Vaugirard, 75003 Paris",75003,48.832297,2.368523,Méditerranéen,,50-100,Haut de gamme,4.9,178,Vue panoramique,0130162252,true
Les Rodriguez,"77 rue des Rosiers, 75004 Paris",75004,48.833945,2.254375,Caribéen,,20-30,Moyenne gamme,3.1,13,Vue panoramique,0121479490,false
Chez Margaux,"75 rue Montorgueil, 75016 Paris",75016,48.950534,2.312798,Pizza,,50-100,Haut de gamme,4.0,686,Traditionnel,0121927959,true
Ollivier & Dias,"12 boulevard de Clichy, 75015 Paris",75015,48.928598,2.288677,Espagnol,,100+,Haut de gamme,3.1,780,Cosy,0120955479,true
Aubry,"134 rue de la Pompe, 75018 Paris",75018,48.905446,2.270448,Méditerranéen,Burger,50-100,Haut de gamme,3.6,414,Familial,0174837683,false
Briand & Lecomte,"45 rue des Martyrs, 75007 Paris",75007,48.894582,2.343849,Fruits de mer,Japonais,50-100,Haut de gamme,3.4,852,Élégant,0186435018,true
Les Gimenez,"134 rue Didot, 75001 Paris",75001,48.949623,2.399242,Street food,Grecque,10-20,Bon marché,3.8,161,Cosy,0123822246,false
Chauveau & Blot,"125 avenue Parmentier, 75020 Paris",75020,48.926777,2.406542,Libanais,Fruits de mer,100+,Haut de gamme,4.2,720,Terrasse,0114605298,true
Les Bourgeois,"6 rue du Cherche-Midi, 75010 Paris",75010,48.902846,2.265179,Méditerranéen,,10-20,Bon marché,4.9,243,Élégant,0148665144,false
Delannoy & Langlois,"55 rue de la Pompe, 75016 Paris",75016,48.804921,2.28277,Crêperie,,100+,Haut de gamme,4.6,77,Moderne,0174612777,false
Chez Andrée,"15 rue des Rosiers, 75002 Paris",75002,48.863319,2.350987,Vietnamien,,30-50,Moyenne gamme,3.7,485,Convivial,0160912597,true
Chez Marguerite,"122 boulevard Voltaire, 75018 Paris",75018,48.897284,2.414036,Libanais,,30-50,Moyenne gamme,4.5,715,Branché,0146135916,true
Chez Manon,"58 boulevard de Magenta, 75007 Paris",75007,48.960311,2.371166,Grecque,Sushi,10-20,Bon marché,3.9,145,Décontracté,0186113842,false
Navarro & Blondel,"97 avenue de Wagram, 75015 Paris",75015,48.903539,2.300741,Brésilien,Gastronomique,100+,Haut de gamme,3.8,114,Romantique,0175945781,false
Café Bon du Coin,"84 rue de la Roquette, 75009 Paris",75009,48.911418,2.41957,Mexicain,Gastronomique,20-30,Moyenne gamme,4.8,834,Terrasse,0194509727,false
Les Sauvage,"108 rue de Passy, 75013 Paris",75013,48.914218,2.336244,Street food,,100+,Haut de gamme,4.6,361,Calme,0197789170,false
Chez Georges,"143 avenue Montaigne, 75010 Paris",75010,48.948143,2.32148,Indien,,100+,Haut de gamme,4.5,197,Festif,0193213855,true
Les Jean,"67 boulevard Voltaire, 75010 Paris",75010,48.864884,2.30072,Chinois,Tapas,100+,Haut de gamme,4.2,645,Branché,0170347425,false
Maillot,"39 rue Mouffetard, 75007 Paris",75007,48.876849,2.285595,Brésilien,Ramen,20-30,Moyenne gamme,4.6,509,Festif,0190325091,true
Chez Jacqueline,"148 rue des Martyrs, 75016 Paris",75016,48.863427,2.252393,Sushi,Grecque,50-100,Haut de gamme,3.8,998,Historique,0159101478,true
Les Lenoir,"136 rue du Faubourg Saint-Antoine, 75001 Paris",75001,48.850694,2.299441,Espagnol,Crêperie,30-50,Moyenne gamme,3.3,402,Convivial,0185493118,false
Cuisine Impérial,"35 rue du Cherche-Midi, 75016 Paris",75016,48.862321,2.360592,Marocain,Sushi,50-100,Haut de gamme,3.0,239,Élégant,0137128574,true
Bistrot Authentique des Délices,"13 rue Saint-Maur, 75002 Paris",75002,48.907153,2.30119,Français,Végan,50-100,Haut de gamme,3.9,136,Traditionnel,0170992936,false
Bistrot Impérial des Gourmets,"36 rue de la Pompe, 75004 Paris",75004,48.85021,2.256699,Chinois,Sushi,10-20,Bon marché,4.0,633,Animé,0143763555,false
Rolland & Pruvost,"54 rue du Temple, 75016 Paris",75016,48.817219,2.293502,Français,Végan,10-20,Bon marché,4.7,695,Historique,0129217519,false
Chez Matthieu,"117 rue Daguerre, 75009 Paris",75009,48.823527,2.360024,Chinois,,10-20,Bon marché,4.7,378,Festif,0164242215,true
Les Robert,"92 boulevard de Grenelle, 75020 Paris",75020,48.910304,2.385475,Japonais,Crêperie,20-30,Moyenne gamme,3.2,419,Authentique,0144599871,false
La Moderne du Chef,"27 rue de la Pompe, 75019 Paris",75019,48.810767,2.361346,Brésilien,Bistrot,30-50,Moyenne gamme,4.2,893,Élégant,0171722462,true
Neveu,"135 avenue Parmentier, 75019 Paris",75019,48.825271,2.390494,Thaïlandais,Ramen,100+,Haut de gamme,3.2,687,Calme,0171549496,false
Chez Charles,"130 rue de la Gaîté, 75016 Paris",75016,48.938908,2.263401,Végan,,30-50,Moyenne gamme,3.5,294,Familial,0174388092,true
Rolland & Mercier,"147 boulevard de Grenelle, 75003 Paris",75003,48.963739,2.358381,Brasserie,Méditerranéen,10-20,Bon marché,3.2,432,Familial,0181801021,false
Assiette Français,"117 rue du Cherche-Midi, 75012 Paris",75012,48.912015,2.250373,Burger,,30-50,Moyenne gamme,4.1,644,Historique,0194566724,true
Les David,"75 rue Vaugirard, 75017 Paris",75017,48.958137,2.316792,Chinois,Fruits de mer,50-100,Haut de gamme,3.3,744,Vue panoramique,0123428835,true
Rémy & Guérin,"49 rue de Bretagne, 75011 Paris",75011,48.884801,2.340162,Grecque,Tapas,100+,Haut de gamme,3.2,923,Authentique,0168948574,true
Relais Moderne des Gourmets,"124 rue Caulaincourt, 75006 Paris",75006,48.929604,2.296511,Libanais,,20-30,Moyenne gamme,3.2,683,Festif,0174596387,false
Les Buisson,"76 boulevard de Grenelle, 75005 Paris",75005,48.956603,2.272554,Africain,Ramen,100+,Haut de gamme,4.7,738,Animé,0135368947,false
Chez Noël,"129 rue du Commerce, 75011 Paris",75011,48.888864,2.254296,Sushi,Méditerranéen,100+,Haut de gamme,4.1,693,Vue panoramique,0196784664,false
L'Atelier Bon du Chef,"74 boulevard de Magenta, 75009 Paris",75009,48.947023,2.37621,Italien,Pizza,20-30,Moyenne gamme,4.5,43,Intime,0167238896,false
Menu d'Or,"131 rue du Temple, 75010 Paris",75010,48.947704,2.396276,Italien,,50-100,Haut de gamme,3.8,817,Festif,0180161142,true
Laroche & Vallée,"58 boulevard de la Villette, 75012 Paris",75012,48.963621,2.374964,Gastronomique,,20-30,Moyenne gamme,4.6,997,Animé,0147673297,true
Relais Bon des Délices,"68 rue Mouffetard, 75006 Paris",75006,48.851196,2.384284,Américain,Brasserie,20-30,Moyenne gamme,3.1,960,Festif,0186169088,false
Les Benoit,"135 rue Lepic, 75006 Paris",75006,48.837136,2.377951,Africain,Gastronomique,100+,Haut de gamme,3.8,367,Calme,0137945252,true
Restaurant Savoureux Gourmand,"63 boulevard Saint-Germain, 75011 Paris",75011,48.952708,2.282727,Chinois,Gastronomique,30-50,Moyenne gamme,3.0,539,Intime,0175756772,true
Délice de Paris,"43 rue du Commerce, 75018 Paris",75018,48.959758,2.376971,Japonais,Tapas,20-30,Moyenne gamme,4.7,444,Cosy,0136789965,false
Chez Élodie,"7 rue Didot, 75011 Paris",75011,48.873614,2.252871,Japonais,Sushi,30-50,Moyenne gamme,4.1,598,Calme,0143625967,false
Les Authentique de la Place,"150 boulevard Saint-Germain, 75003 Paris",75003,48.89069,2.273185,Africain,Sushi,30-50,Moyenne gamme,4.2,298,Authentique,0158609413,true
Payet & Ramos,"140 rue Daguerre, 75005 Paris",75005,48.891316,2.410986,Vietnamien,,10-20,Bon marché,4.1,578,Élégant,0125151083,false
Les Masse,"54 rue Réaumur, 75012 Paris",75012,48.944736,2.408503,Africain,Fruits de mer,20-30,Moyenne gamme,4.2,268,Animé,0124339582,false
Palais Français,"141 rue Saint-Honoré, 75010 Paris",75010,48.905318,2.40302,Américain,Ramen,100+,Haut de gamme,4.0,348,Intime,0126959340,true
Les Verdier,"125 boulevard de Grenelle, 75011 Paris",75011,48.837659,2.375769,Mexicain,Fruits de mer,100+,Haut de gamme,4.1,837,Festif,0164311050,true
Reynaud & Berger,"71 place Vendôme, 75005 Paris",75005,48.813936,2.297705,Thaïlandais,,50-100,Haut de gamme,3.9,803,Moderne,0172802332,false
Chez Sabine,"138 rue du Faubourg Saint-Antoine, 75009 Paris",75009,48.806232,2.294305,Tapas,Japonais,10-20,Bon marché,4.7,656,Romantique,0184846185,true
Chez Christelle,"94 rue de Passy, 75008 Paris",75008,48.84061,2.41388,Street food,,30-50,Moyenne gamme,3.3,523,Convivial,0121605674,true
Cordier & Aubert,"41 avenue Montaigne, 75019 Paris",75019,48.862804,2.257277,Tapas,,20-30,Moyenne gamme,4.5,505,Intime,0115387239,true
Pereira & Delmas,"117 boulevard Saint-Germain, 75002 Paris",75002,48.952699,2.263232,Crêperie,Africain,30-50,Moyenne gamme,4.7,279,Décontracté,0158935856,false
Les Perret,"97 rue Lepic, 75017 Paris",75017,48.847738,2.275541,Vietnamien,Brasserie,100+,Haut de gamme,3.0,913,Élégant,0166313919,false
Chez Adrienne,"93 rue Saint-Maur, 75004 Paris",75004,48.803816,2.257335,Grecque,,10-20,Bon marché,4.0,500,Historique,0136853092,false
Goût d'Or,"132 boulevard Saint-Germain, 75019 Paris",75019,48.968772,2.397441,Libanais,Fruits de mer,100+,Haut de gamme,4.9,623,Romantique,0194462037,true
Chez Audrey,"57 rue de la Pompe, 75020 Paris",75020,48.865529,2.268457,Libanais,Gastronomique,30-50,Moyenne gamme,3.3,712,Festif,0168868518,true
Chez Antoinette,"134 rue Caulaincourt, 75014 Paris",75014,48.902591,2.390679,Street food,Méditerranéen,100+,Haut de gamme,4.2,908,Convivial,0125217194,true
Bigot & Chauveau,"134 rue de la Pompe, 75012 Paris",75012,48.843268,2.380196,Ramen,Espagnol,50-100,Haut de gamme,4.6,400,Intime,0185998322,true
Relais Bon Gourmand,"2 rue de Bretagne, 75001 Paris",75001,48.843118,2.395346,Chinois,Bistrot,20-30,Moyenne gamme,4.4,333,Vue panoramique,0156232964,false
Vincent & Maillet,"145 place Vendôme, 75020 Paris",75020,48.968046,2.348201,Coréen,,50-100,Haut de gamme,4.1,580,Historique,0132578181,true
Guibert & Imbert,"36 avenue de la République, 75004 Paris",75004,48.808849,2.316148,Brasserie,,20-30,Moyenne gamme,3.2,530,Terrasse,0153808899,false
Bonnet,"38 rue de la Gaîté, 75020 Paris",75020,48.9638,2.259769,Japonais,Crêperie,10-20,Bon marché,4.2,751,Terrasse,0161889376,true
Maillot & Nicolas,"113 rue de Rivoli, 75007 Paris",75007,48.861156,2.361353,Sushi,Marocain,10-20,Bon marché,4.6,532,Convivial,0199398831,false
Chez Paul,"23 rue de la Roquette, 75013 Paris",75013,48.859176,2.413759,Coréen,Burger,100+,Haut de gamme,3.0,730,Branché,0121804681,false
Les Olivier,"58 rue Saint-Maur, 75007 Paris",75007,48.962641,2.398939,Coréen,Pizza,20-30,Moyenne gamme,3.8,119,Branché,0174475324,false
Aubert & Regnier,"97 avenue Parmentier, 75016 Paris",75016,48.934072,2.287465,Sushi,Brésilien,50-100,Haut de gamme,4.8,892,Romantique,0171244318,true
Chez Caroline,"81 rue de la Pompe, 75012 Paris",75012,48.881014,2.310101,Français,,30-50,Moyenne gamme,3.5,105,Terrasse,0196531980,false
Briand & Vidal,"52 rue des Rosiers, 75008 Paris",75008,48.801126,2.395705,Burger,Espagnol,100+,Haut de gamme,3.7,807,Cosy,0125209694,true
Pinto,"96 rue de Belleville, 75011 Paris",75011,48.805536,2.309039,Américain,Sushi,100+,Haut de gamme,3.6,237,Élégant,0116776471,false
Sanchez & Pichon,"31 rue du Temple, 75017 Paris",75017,48.845799,2.41295,Français,Burger,50-100,Haut de gamme,4.2,343,Intime,0188433380,true
Les Dias,"94 avenue Montaigne, 75016 Paris",75016,48.916622,2.388412,Grecque,,30-50,Moyenne gamme,3.7,420,Traditionnel,0167338326,false
Les Perrin,"61 rue Vaugirard, 75014 Paris",75014,48.853674,2.332725,Burger,Indien,50-100,Haut de gamme,4.6,190,Vue panoramique,0173279076,false
Les Girard,"144 avenue Parmentier, 75002 Paris",75002,48.958414,2.293812,Libanais,Pizza,50-100,Haut de gamme,4.7,108,Authentique,0152435656,false
Restaurant Moderne du Coin,"51 avenue Parmentier, 75019 Paris",75019,48.878838,2.412621,Caribéen,Sushi,30-50,Moyenne gamme,3.7,699,Convivial,0172672058,false
Garcia & Morin,"147 rue de Passy, 75003 Paris",75003,48.876549,2.278444,Thaïlandais,Crêperie,30-50,Moyenne gamme,4.4,629,Terrasse,0144665685,false
L'Assiette Parisien de la Tour,"21 rue de Buci, 75006 Paris",75006,48.814333,2.40837,Chinois,Brasserie,100+,Haut de gamme,3.1,799,Terrasse,0177202343,false
Chrétien & Gomez,"80 rue Lepic, 75008 Paris",75008,48.948053,2.408926,Brasserie,Indien,100+,Haut de gamme,4.7,39,Familial,0194555170,true
Palais d'Or,"139 avenue Montaigne, 75019 Paris",75019,48.870075,2.276472,Grecque,Tapas,100+,Haut de gamme,3.6,365,Historique,0179392166,true
Au Délicieux de la Tour,"121 rue du Commerce, 75001 Paris",75001,48.832057,2.399968,Méditerranéen,,50-100,Haut de gamme,3.6,794,Vue panoramique,0147863910,false
Brun & Cordier,"102 rue des Rosiers, 75006 Paris",75006,48.910238,2.340431,Tapas,Coréen,20-30,Moyenne gamme,3.5,442,Calme,0176889897,true
Les Vallée,"106 rue du Faubourg Saint-Antoine, 75003 Paris",75003,48.890945,2.281609,Mexicain,Brasserie,100+,Haut de gamme,3.9,727,Historique,0134511229,true
Au Traditionnel des Saveurs,"3 rue Lepic, 75003 Paris",75003,48.927597,2.274835,Méditerranéen,Bistrot,30-50,Moyenne gamme,4.6,520,Intime,0169991452,true
Les Leduc,"101 rue Saint-Honoré, 75018 Paris",75018,48.969071,2.283861,Marocain,,30-50,Moyenne gamme,4.6,858,Romantique,0125415966,true
L'Atelier Savoureux du Palais,"80 rue de Turbigo, 75006 Paris",75006,48.946822,2.287024,Italien,,100+,Haut de gamme,4.0,269,Historique,0191483556,false
Relais Délicieux du Marché,"43 rue de la Roquette, 75019 Paris",75019,48.916611,2.307532,Espagnol,Végétarien,100+,Haut de gamme,4.6,496,Élégant,0157214130,true
Au Traditionnel des Délices,"28 rue Mouffetard, 75016 Paris",75016,48.842618,2.256713,Caribéen,,30-50,Moyenne gamme,4.6,459,Animé,0112985855,false
Benoit & Maréchal,"144 rue Daguerre, 75018 Paris",75018,48.876395,2.389301,Marocain,Gastronomique,30-50,Moyenne gamme,3.6,489,Traditionnel,0186803018,false
Gaillard,"130 boulevard Raspail, 75006 Paris",75006,48.884583,2.34375,Street food,,100+,Haut de gamme,3.5,748,Branché,0194785934,false
Table Royal,"105 rue de Ménilmontant, 75011 Paris",75011,48.909098,2.316062,Africain,Végétarien,20-30,Moyenne gamme,3.4,42,Animé,0123723422,true
Bernard & Perrier,"135 rue de Belleville, 75019 Paris",75019,48.810319,2.344863,Vietnamien,Ramen,10-20,Bon marché,3.0,953,Animé,0193722069,false
Aubry & De Sousa,"95 rue de Bretagne, 75002 Paris",75002,48.83283,2.361669,Pizza,Japonais,30-50,Moyenne gamme,3.2,231,Convivial,0122223978,true
Menu Français,"28 boulevard de la Villette, 75019 Paris",75019,48.890763,2.351986,Brésilien,,50-100,Haut de gamme,4.8,180,Décontracté,0180617453,false
Les Renault,"81 rue Vaugirard, 75011 Paris",75011,48.957445,2.293195,Bistrot,,50-100,Haut de gamme,4.7,341,Calme,0182793758,false
Briand & Grenier,"115 rue de Passy, 75001 Paris",75001,48.93973,2.367252,Pizza,Africain,20-30,Moyenne gamme,5.0,319,Romantique,0148383750,true
Les Foucher,"142 rue Caulaincourt, 75018 Paris",75018,48.815624,2.317966,Indien,Brasserie,30-50,Moyenne gamme,3.3,281,Intime,0184413942,false
Meyer,"124 avenue Montaigne, 75016 Paris",75016,48.856846,2.399565,Ramen,,10-20,Bon marché,4.2,317,Familial,0183582017,false
Aubert & Collet,"107 rue Oberkampf, 75008 Paris",75008,48.918621,2.276044,Street food,,50-100,Haut de gamme,3.1,546,Familial,0150798229,true
Carpentier & Boyer,"115 rue Saint-Maur, 75019 Paris",75019,48.814463,2.33531,Espagnol,Sushi,50-100,Haut de gamme,3.3,354,Branché,0170831680,true
Chez Inès,"35 rue de la Gaîté, 75018 Paris",75018,48.85498,2.407103,Coréen,Burger,100+,Haut de gamme,4.2,763,Convivial,0141411944,false
Relais Gourmand de la Seine,"90 rue du Faubourg Saint-Antoine, 75011 Paris",75011,48.839693,2.366511,Français,,20-30,Moyenne gamme,5.0,641,Authentique,0189286615,false
La Nouveau des Gourmets,"38 rue Daguerre, 75001 Paris",75001,48.905917,2.418691,Chinois,Brasserie,10-20,Bon marché,3.7,767,Animé,0136797643,false
Maison Petit de la Tour,"44 rue de la Paix, 75010 Paris",75010,48.94746,2.3604,Américain,Tapas,10-20,Bon marché,3.1,686,Traditionnel,0194945623,true
Bonnet & Letellier,"131 rue de Bretagne, 75004 Paris",75004,48.890001,2.306707,Brasserie,,100+,Haut de gamme,3.2,213,Convivial,0168811215,true
Bouvier & Boyer,"41 avenue des Champs-Élysées, 75012 Paris",75012,48.858104,2.316784,Vietnamien,Burger,100+,Haut de gamme,3.6,73,Traditionnel,0159138145,true
Chez Benoît,"23 rue Réaumur, 75013 Paris",75013,48.898775,2.366288,Espagnol,Street food,20-30,Moyenne gamme,3.9,329,Festif,0167792636,false
Chez Christiane,"80 rue du Temple, 75017 Paris",75017,48.820126,2.303992,Bistrot,,20-30,Moyenne gamme,4.3,588,Décontracté,0150188178,false
Boyer,"106 rue de la Pompe, 75010 Paris",75010,48.839255,2.254434,Américain,Burger,10-20,Bon marché,3.3,36,Traditionnel,0187828839,false
Cuisine Vieux des Délices,"121 rue de Bretagne, 75012 Paris",75012,48.968001,2.378822,Coréen,Fruits de mer,20-30,Moyenne gamme,3.4,43,Vue panoramique,0111446238,false
Table Moderne des Gourmets,"126 rue du Temple, 75011 Paris",75011,48.909037,2.369699,Burger,Italien,100+,Haut de gamme,4.5,399,Festif,0160888386,false
Table Savoureux du Marché,"63 avenue de Clichy, 75018 Paris",75018,48.904233,2.259273,Italien,Gastronomique,10-20,Bon marché,3.4,460,Terrasse,0148466931,true
Lemoine & Muller,"24 rue Réaumur, 75017 Paris",75017,48.917592,2.404218,Caribéen,Bistrot,30-50,Moyenne gamme,3.9,193,Authentique,0185356821,true
Table Parisien de la Seine,"22 avenue de Clichy, 75013 Paris",75013,48.824583,2.380757,Gastronomique,Libanais,50-100,Haut de gamme,4.1,54,Décontracté,0152829429,true
Brasserie Traditionnel des Saveurs,"74 boulevard de la Villette, 75006 Paris",75006,48.903357,2.333889,Indien,,10-20,Bon marché,4.2,269,Romantique,0168737379,false
Chez Daniel,"122 rue Didot, 75014 Paris",75014,48.806243,2.395151,Français,Gastronomique,30-50,Moyenne gamme,4.2,580,Animé,0116332817,false
Relais Vieux du Chef,"73 rue de Belleville, 75020 Paris",75020,48.928935,2.393363,Caribéen,Brasserie,100+,Haut de gamme,3.7,46,Branché,0148515758,false
Au Grand de la Place,"71 rue du Cherche-Midi, 75017 Paris",75017,48.967667,2.298822,Marocain,Street food,10-20,Bon marché,3.2,757,Convivial,0121719887,false
Cuisine Royal,"135 avenue Parmentier, 75020 Paris",75020,48.800269,2.254078,Indien,Brasserie,100+,Haut de gamme,4.5,519,Historique,0133883947,false
Antoine,"54 rue de Belleville, 75014 Paris",75014,48.855067,2.251042,Thaïlandais,Sushi,20-30,Moyenne gamme,3.0,216,Moderne,0142184948,false
Les Delorme,"102 rue Réaumur, 75019 Paris",75019,48.906624,2.40165,Français,,20-30,Moyenne gamme,3.7,356,Historique,0170149227,true
Valentin & Fournier,"15 avenue de Clichy, 75010 Paris",75010,48.863791,2.340826,Thaïlandais,Végétarien,20-30,Moyenne gamme,4.2,349,Intime,0118294513,true
Chez Laure,"147 rue Saint-Maur, 75013 Paris",75013,48.863169,2.391008,Chinois,,30-50,Moyenne gamme,4.4,332,Familial,0144622173,false
Les Faure,"56 avenue de Clichy, 75010 Paris",75010,48.957018,2.374515,Vietnamien,,20-30,Moyenne gamme,4.8,464,Convivial,0113717429,true
Chez Astrid,"26 avenue de Clichy, 75005 Paris",75005,48.807844,2.338498,Italien,Ramen,100+,Haut de gamme,3.2,328,Familial,0197862152,true
Les Descamps,"6 avenue Parmentier, 75010 Paris",75010,48.819458,2.412911,Marocain,Burger,30-50,Moyenne gamme,3.6,336,Authentique,0195254429,true
Les Guillon,"70 rue Cler, 75010 Paris",75010,48.809146,2.322499,Libanais,Street food,30-50,Moyenne gamme,4.1,61,Élégant,0113709616,true
Chez Geneviève,"115 rue de Belleville, 75012 Paris",75012,48.877449,2.366361,Marocain,,100+,Haut de gamme,3.2,954,Authentique,0182262199,true
Barbe & Gomes,"121 rue Lepic, 75008 Paris",75008,48.819191,2.331371,Américain,,50-100,Haut de gamme,3.4,949,Festif,0151687213,true
Chez Raymond,"73 avenue de Wagram, 75020 Paris",75020,48.840558,2.291427,Africain,Ramen,10-20,Bon marché,3.7,675,Branché,0148786961,false
Chez Lucas,"124 boulevard Raspail, 75003 Paris",75003,48.921024,2.392247,Grecque,,50-100,Haut de gamme,4.1,360,Calme,0132949519,false
Table Délicieux des Délices,"25 boulevard de Grenelle, 75006 Paris",75006,48.938896,2.400834,Coréen,Végan,100+,Haut de gamme,4.5,398,Festif,0173929417,true
Dupuis,"39 boulevard de Grenelle, 75018 Paris",75018,48.967692,2.318714,Brésilien,Tapas,30-50,Moyenne gamme,3.6,823,Moderne,0165542184,true
Chez Rémy,"76 rue de la Paix, 75012 Paris",75012,48.854082,2.315074,Végétarien,Caribéen,30-50,Moyenne gamme,3.2,298,Romantique,0140659985,true
Delaunay & Payet,"112 rue du Commerce, 75007 Paris",75007,48.812197,2.25267,Méditerranéen,Gastronomique,50-100,Haut de gamme,4.7,378,Vue panoramique,0129469526,true
Leconte & Imbert,"112 rue Mouffetard, 75003 Paris",75003,48.865402,2.288376,Grecque,,100+,Haut de gamme,4.9,648,Décontracté,0168756480,false
Ribeiro & Albert,"2 avenue Parmentier, 75016 Paris",75016,48.819238,2.331861,Burger,,30-50,Moyenne gamme,3.8,569,Intime,0114148271,false
Maison Moderne de la Tour,"120 avenue de Clichy, 75003 Paris",75003,48.879708,2.337153,Japonais,Tapas,10-20,Bon marché,4.4,562,Moderne,0188165378,false
Gomes & Hamel,"147 rue Réaumur, 75011 Paris",75011,48.808775,2.418362,Mexicain,Végétarien,100+,Haut de gamme,4.5,754,Traditionnel,0117907084,true
Saveur Royal,"125 rue Montorgueil, 75005 Paris",75005,48.912056,2.31286,Américain,Street food,30-50,Moyenne gamme,3.6,273,Romantique,0124873285,false
Les Petit,"61 boulevard Barbès, 75006 Paris",75006,48.92342,2.278438,Végétarien,Japonais,20-30,Moyenne gamme,4.2,851,Élégant,0173625940,false
Table Gourmand des Saveurs,"78 rue de la Gaîté, 75018 Paris",75018,48.916089,2.256973,Coréen,Fruits de mer,100+,Haut de gamme,4.7,22,Moderne,0167589650,false
Les Loiseau,"69 boulevard Haussmann, 75009 Paris",75009,48.853256,2.251798,Coréen,Tapas,20-30,Moyenne gamme,4.5,612,Animé,0176539698,false
Legrand,"4 rue de la Pompe, 75004 Paris",75004,48.942028,2.411583,Brésilien,Ramen,30-50,Moyenne gamme,3.5,44,Romantique,0189211786,false
Guillou,"31 rue Montorgueil, 75020 Paris",75020,48.913488,2.38092,Libanais,,20-30,Moyenne gamme,3.5,488,Branché,0191684564,false
Les Lévêque,"42 rue Saint-Honoré, 75009 Paris",75009,48.830335,2.33365,Bistrot,Italien,30-50,Moyenne gamme,4.9,281,Décontracté,0166187235,false
Les Moulin,"27 boulevard Saint-Germain, 75003 Paris",75003,48.856071,2.316526,Américain,,10-20,Bon marché,4.8,162,Romantique,0114955944,true
Cuisine Savoureux du Palais,"104 rue Réaumur, 75003 Paris",75003,48.969493,2.360003,Français,Ramen,50-100,Haut de gamme,3.2,558,Intime,0152974861,true
Jacquet & Barbier,"75 rue de Ménilmontant, 75007 Paris",75007,48.907575,2.375005,Italien,,20-30,Moyenne gamme,3.6,409,Cosy,0190985572,true
Chez Brigitte,"10 rue du Faubourg Saint-Antoine, 75001 Paris",75001,48.809529,2.383922,Street food,Coréen,10-20,Bon marché,4.6,668,Moderne,0173786712,true
L'Atelier Authentique du Coin,"134 rue Didot, 75018 Paris",75018,48.822191,2.279282,Espagnol,,10-20,Bon marché,4.5,510,Romantique,0170891541,false
Raymond,"25 rue Didot, 75020 Paris",75020,48.966973,2.365328,Japonais,,10-20,Bon marché,3.2,619,Calme,0118356453,false
Les Guibert,"31 boulevard de Magenta, 75019 Paris",75019,48.870576,2.36837,Thaïlandais,,20-30,Moyenne gamme,4.5,617,Décontracté,0152182545,true
Chez Éléonore,"149 boulevard Saint-Germain, 75005 Paris",75005,48.848234,2.367896,Coréen,,10-20,Bon marché,4.8,92,Romantique,0110322193,false
Petit & Martineau,"33 rue de Buci, 75005 Paris",75005,48.851204,2.321194,Africain,Burger,20-30,Moyenne gamme,4.2,48,Décontracté,0173882190,false
Assiette d'Or,"31 avenue de Clichy, 75004 Paris",75004,48.913924,2.25733,Caribéen,Brasserie,20-30,Moyenne gamme,3.6,208,Cosy,0129977073,true
Les Ribeiro,"54 rue de la Convention, 75009 Paris",75009,48.840001,2.32562,Brésilien,Ramen,10-20,Bon marché,4.8,190,Décontracté,0113727524,true
Chez Margaud,"84 rue Lepic, 75004 Paris",75004,48.82464,2.407741,Chinois,Bistrot,20-30,Moyenne gamme,3.8,235,Branché,0170847216,false
Duval & Lucas,"46 boulevard Raspail, 75012 Paris",75012,48.829104,2.308408,Marocain,Pizza,20-30,Moyenne gamme,3.7,42,Familial,0145272469,true
Assiette de Paris,"106 avenue de Clichy, 75016 Paris",75016,48.957672,2.410863,Burger,Brésilien,30-50,Moyenne gamme,3.0,448,Calme,0141516584,true
Saveur Impérial,"12 boulevard Saint-Germain, 75016 Paris",75016,48.802112,2.374404,Gastronomique,Africain,50-100,Haut de gamme,4.0,827,Cosy,0167734020,false
Chez Franck,"92 rue Daguerre, 75008 Paris",75008,48.948164,2.356558,Japonais,Tapas,30-50,Moyenne gamme,3.3,480,Romantique,0168692761,true
Maillard,"19 boulevard Raspail, 75011 Paris",75011,48.809318,2.410705,Mexicain,Pizza,100+,Haut de gamme,4.1,823,Animé,0197208952,false
Les Lacroix,"14 rue Oberkampf, 75013 Paris",75013,48.881344,2.409655,Italien,Fruits de mer,100+,Haut de gamme,4.4,584,Animé,0127524079,true
Chez Michelle,"83 avenue de Wagram, 75009 Paris",75009,48.890585,2.299685,Grecque,Végan,30-50,Moyenne gamme,3.7,507,Convivial,0177257078,false
Cuisine Français,"17 rue du Faubourg Saint-Antoine, 75015 Paris",75015,48.825585,2.284724,Coréen,,30-50,Moyenne gamme,4.9,88,Cosy,0131452499,true
Au Savoureux de la Seine,"108 boulevard de Grenelle, 75001 Paris",75001,48.855472,2.350871,Japonais,Sushi,20-30,Moyenne gamme,4.7,542,Festif,0162845393,false
Les Le Goff,"146 rue Mouffetard, 75010 Paris",75010,48.827334,2.341004,Américain,Crêperie,30-50,Moyenne gamme,4.5,58,Élégant,0155466831,false
Chez Marianne,"40 rue des Martyrs, 75008 Paris",75008,48.891777,2.277642,Thaïlandais,Brasserie,30-50,Moyenne gamme,3.7,220,Familial,0195505428,true
Les Couturier,"32 avenue des Champs-Élysées, 75013 Paris",75013,48.964833,2.378207,Sushi,Brésilien,30-50,Moyenne gamme,3.3,766,Convivial,0152924770,false
Aubry & Bodin,"87 rue du Temple, 75004 Paris",75004,48.909023,2.349183,Végétarien,Caribéen,10-20,Bon marché,3.6,421,Calme,0167552151,true
Chez Claudine,"72 rue du Faubourg Saint-Antoine, 75001 Paris",75001,48.861381,2.275151,Brésilien,Végan,100+,Haut de gamme,3.8,512,Festif,0187877517,false
Deschamps & Roux,"95 boulevard Raspail, 75012 Paris",75012,48.964961,2.322051,Vietnamien,Brasserie,100+,Haut de gamme,3.2,755,Authentique,0163664630,false
Morin & Couturier,"36 boulevard Voltaire, 75020 Paris",75020,48.870467,2.344488,Marocain,Gastronomique,30-50,Moyenne gamme,3.1,993,Terrasse,0121106291,false
Baron & Bertrand,"75 rue Vaugirard, 75016 Paris",75016,48.962525,2.391821,Mexicain,,30-50,Moyenne gamme,4.0,767,Authentique,0138131029,true
Bernard & Le Roux,"32 rue de Ménilmontant, 75010 Paris",75010,48.896148,2.397619,Méditerranéen,,20-30,Moyenne gamme,3.1,793,Traditionnel,0173188656,false
Pires & Dumont,"31 place Vendôme, 75017 Paris",75017,48.846354,2.321317,Végétarien,,20-30,Moyenne gamme,4.2,159,Festif,0169982755,true
Les Diaz,"13 rue Daguerre, 75010 Paris",75010,48.846148,2.368654,Japonais,Sushi,20-30,Moyenne gamme,4.5,623,Décontracté,0179515097,false
Restaurant Moderne du Chef,"4 rue Mouffetard, 75017 Paris",75017,48.889361,2.340456,Méditerranéen,Fruits de mer,10-20,Bon marché,3.4,525,Calme,0134818898,false
Renard & Traore,"20 rue Oberkampf, 75005 Paris",75005,48.820161,2.271881,Brasserie,Vietnamien,20-30,Moyenne gamme,4.6,921,Convivial,0153324813,false
Chez Capucine,"59 avenue de l'Opéra, 75005 Paris",75005,48.912164,2.35084,Japonais,Sushi,10-20,Bon marché,3.2,803,Historique,0165153523,true
Courtois & Munoz,"31 boulevard de Clichy, 75002 Paris",75002,48.943796,2.410114,Français,,10-20,Bon marché,4.8,220,Animé,0133955413,true
Saveur Parisien,"56 rue de Bretagne, 75007 Paris",75007,48.831471,2.364499,Fruits de mer,,100+,Haut de gamme,3.0,752,Cosy,0137747056,false
Restaurant Gourmand du Palais,"55 rue Caulaincourt, 75008 Paris",75008,48.819673,2.298214,Thaïlandais,Végan,100+,Haut de gamme,3.3,790,Intime,0146811520,true
Guilbert & Petit,"58 rue Vaugirard, 75014 Paris",75014,48.87447,2.361953,Grecque,Végan,50-100,Haut de gamme,4.9,386,Décontracté,0111967296,true
Auberge Gourmand de la Place,"27 rue des Martyrs, 75003 Paris",75003,48.934214,2.359451,Marocain,Street food,50-100,Haut de gamme,3.2,868,Vue panoramique,0173458485,true
Marie & Sanchez,"92 rue de la Gaîté, 75020 Paris",75020,48.925426,2.391153,Brasserie,Indien,50-100,Haut de gamme,3.2,266,Historique,0173399027,true
Blot & Gérard,"7 avenue Montaigne, 75013 Paris",75013,48.883343,2.294483,Thaïlandais,Street food,100+,Haut de gamme,3.2,88,Convivial,0173693547,false
Da Silva & Lemaître,"31 boulevard Raspail, 75015 Paris",75015,48.866144,2.379882,Coréen,Végétarien,10-20,Bon marché,3.4,685,Moderne,0131726527,true
Cuisine Impérial du Palais,"91 rue Daguerre, 75011 Paris",75011,48.968631,2.320028,Italien,Crêperie,30-50,Moyenne gamme,4.6,607,Romantique,0190535822,true
L'Assiette Nouveau du Coin,"80 boulevard Voltaire, 75003 Paris",75003,48.95324,2.295325,Végan,,10-20,Bon marché,3.7,30,Festif,0114689464,false
Guillon & Courtois,"6 rue de Turbigo, 75013 Paris",75013,48.904521,2.311767,Thaïlandais,Sushi,50-100,Haut de gamme,3.2,701,Animé,0153737495,true
Caron & Perret,"52 boulevard Barbès, 75003 Paris",75003,48.857262,2.261436,Gastronomique,Américain,10-20,Bon marché,3.6,597,Terrasse,0138892184,true
Chez Gilbert,"89 rue Saint-Honoré, 75010 Paris",75010,48.830702,2.253163,Mexicain,Gastronomique,30-50,Moyenne gamme,3.4,421,Traditionnel,0189756895,false
Dupont & Le Gall,"55 avenue de la République, 75015 Paris",75015,48.82558,2.366502,Caribéen,,50-100,Haut de gamme,4.9,754,Familial,0176355669,true
Fournier & Pelletier,"106 rue de Turbigo, 75003 Paris",75003,48.84175,2.390629,Grecque,Pizza,20-30,Moyenne gamme,3.5,625,Calme,0161402429,true
Lacroix & Normand,"125 rue Vaugirard, 75014 Paris",75014,48.963844,2.332593,Italien,Pizza,20-30,Moyenne gamme,3.1,818,Traditionnel,0194803292,false
Les Délicieux des Gourmets,"77 rue Saint-Honoré, 75014 Paris",75014,48.888733,2.390927,Tapas,Japonais,50-100,Haut de gamme,4.9,751,Élégant,0140248374,false
Chez Authentique de la Seine,"85 boulevard Voltaire, 75013 Paris",75013,48.809507,2.34069,Ramen,Grecque,20-30,Moyenne gamme,3.3,189,Animé,0145666242,false
Relais Savoureux du Coin,"64 rue de la Roquette, 75005 Paris",75005,48.893964,2.302576,Vietnamien,,10-20,Bon marché,4.3,936,Familial,0194169895,true
Les Menard,"32 rue du Commerce, 75008 Paris",75008,48.949509,2.380346,Bistrot,Coréen,30-50,Moyenne gamme,3.6,968,Calme,0148363066,false
Martineau & Henry,"9 rue de la Roquette, 75003 Paris",75003,48.871548,2.373969,Brasserie,Grecque,30-50,Moyenne gamme,4.4,907,Cosy,0130994374,true
Valette,"48 boulevard de la Villette, 75015 Paris",75015,48.943983,2.366578,Fruits de mer,Marocain,30-50,Moyenne gamme,3.6,94,Cosy,0130417693,false
Les Vaillant,"116 rue de la Gaîté, 75005 Paris",75005,48.803905,2.34495,Thaïlandais,,20-30,Moyenne gamme,3.2,386,Décontracté,0160588338,true
Cordier & Legendre,"51 boulevard de Clichy, 75006 Paris",75006,48.884005,2.288162,Grecque,Fruits de mer,10-20,Bon marché,4.9,184,Cosy,0111776568,false
Chez Océane,"49 rue de la Roquette, 75010 Paris",75010,48.82481,2.299333,Bistrot,Marocain,100+,Haut de gamme,3.4,853,Moderne,0196346333,true
Les Meyer,"61 rue de Belleville, 75015 Paris",75015,48.920437,2.375138,Crêperie,Brésilien,10-20,Bon marché,3.0,146,Festif,0198609737,false
Les Gomez,"19 boulevard Haussmann, 75018 Paris",75018,48.966179,2.364115,Thaïlandais,,50-100,Haut de gamme,4.8,630,Familial,0110427489,true
Chez Isaac,"144 boulevard Saint-Germain, 75019 Paris",75019,48.966348,2.334866,Libanais,Crêperie,50-100,Haut de gamme,3.3,334,Convivial,0165284324,true
Les Schmitt,"93 rue de la Convention, 75010 Paris",75010,48.911761,2.385697,Pizza,Américain,100+,Haut de gamme,3.6,924,Décontracté,0150722981,false
La Nouveau du Chef,"10 rue de la Gaîté, 75009 Paris",75009,48.815908,2.397589,Brésilien,Brasserie,10-20,Bon marché,3.9,736,Historique,0168732428,true
Chez André,"131 rue de la Roquette, 75019 Paris",75019,48.855872,2.298328,Street food,Français,100+,Haut de gamme,4.5,194,Vue panoramique,0119417396,true
Chez Moderne de la Seine,"40 avenue des Champs-Élysées, 75003 Paris",75003,48.96997,2.404169,Méditerranéen,Pizza,100+,Haut de gamme,4.3,347,Familial,0193896751,false
Gallet,"73 rue de Turbigo, 75002 Paris",75002,48.8277,2.382514,Gastronomique,,50-100,Haut de gamme,3.2,271,Décontracté,0140612112,false
Les Laroche,"40 rue Oberkampf, 75010 Paris",75010,48.883236,2.40052,Grecque,,30-50,Moyenne gamme,4.8,627,Élégant,0155952257,false
Guyon & Menard,"69 avenue Parmentier, 75020 Paris",75020,48.914995,2.360094,Grecque,,100+,Haut de gamme,3.4,655,Vue panoramique,0121157553,false
Leroux & Boutin,"135 boulevard de la Villette, 75017 Paris",75017,48.893669,2.405941,Brésilien,Sushi,50-100,Haut de gamme,3.6,140,Moderne,0141766447,false
Nicolas & Weber,"106 boulevard Haussmann, 75015 Paris",75015,48.807694,2.320763,Américain,Street food,10-20,Bon marché,4.5,26,Cosy,0194693233,false
Les Morel,"81 boulevard Voltaire, 75015 Paris",75015,48.914479,2.323746,Brasserie,Américain,30-50,Moyenne gamme,4.9,902,Décontracté,0137332087,true
Chez Petit du Chef,"123 rue Didot, 75013 Paris",75013,48.851452,2.271265,Ramen,Méditerranéen,30-50,Moyenne gamme,4.2,641,Intime,0198969896,true
Le Traditionnel Gourmand,"7 rue de Buci, 75016 Paris",75016,48.953411,2.375593,Espagnol,Tapas,100+,Haut de gamme,3.4,318,Authentique,0128706412,true
Lelièvre & Louis,"125 rue de la Gaîté, 75001 Paris",75001,48.873404,2.320667,Street food,Mexicain,100+,Haut de gamme,4.7,411,Familial,0152112390,false
Bourgeois & Jacques,"149 rue Saint-Maur, 75018 Paris",75018,48.853695,2.260797,Végétarien,Méditerranéen,100+,Haut de gamme,4.2,636,Historique,0139177712,true
Marty & Schneider,"122 rue Oberkampf, 75016 Paris",75016,48.899902,2.366446,Vietnamien,Bistrot,10-20,Bon marché,3.3,753,Animé,0170546639,false
Les Dumas,"100 rue de la Pompe, 75012 Paris",75012,48.902977,2.267154,Sushi,,20-30,Moyenne gamme,4.2,299,Branché,0195712632,true
Hubert & Laurent,"127 avenue de l'Opéra, 75008 Paris",75008,48.819375,2.288537,Italien,,30-50,Moyenne gamme,4.8,375,Décontracté,0132741418,true
Les Delmas,"88 avenue de Wagram, 75002 Paris",75002,48.903641,2.395926,Gastronomique,Indien,100+,Haut de gamme,4.2,116,Familial,0166682423,false
Alexandre,"11 rue Caulaincourt, 75004 Paris",75004,48.856883,2.273421,Chinois,,30-50,Moyenne gamme,3.3,309,Authentique,0174732229,false
Leleu & Lopes,"107 rue de Rivoli, 75008 Paris",75008,48.928096,2.321693,Brasserie,Africain,20-30,Moyenne gamme,3.2,391,Vue panoramique,0156909541,true
Chez Adèle,"36 rue de la Convention, 75014 Paris",75014,48.814412,2.303517,Brasserie,,100+,Haut de gamme,4.6,380,Romantique,0166281176,false
Chez Lucy,"112 rue de la Paix, 75013 Paris",75013,48.948503,2.372664,Tapas,,20-30,Moyenne gamme,4.8,69,Convivial,0147636197,false
Les Grégoire,"89 rue de Rivoli, 75009 Paris",75009,48.949766,2.264328,Street food,,50-100,Haut de gamme,3.9,220,Authentique,0199549361,false
Brasserie Royal de la Seine,"41 avenue des Champs-Élysées, 75001 Paris",75001,48.821048,2.378615,Gastronomique,Espagnol,30-50,Moyenne gamme,4.5,527,Cosy,0117574390,false
Le Savoureux de la Seine,"61 boulevard Voltaire, 75019 Paris",75019,48.899003,2.389883,Tapas,Espagnol,30-50,Moyenne gamme,3.6,692,Élégant,0158764123,true
Les Potier,"117 boulevard Haussmann, 75005 Paris",75005,48.900001,2.338221,Bistrot,Italien,50-100,Haut de gamme,4.8,497,Animé,0167195796,false
Regnier & Rémy,"68 boulevard Voltaire, 75016 Paris",75016,48.887242,2.339954,Brésilien,Brasserie,50-100,Haut de gamme,4.6,157,Convivial,0126726826,false
Chez Antoine,"117 rue de la Gaîté, 75002 Paris",75002,48.820016,2.301837,Gastronomique,Chinois,100+,Haut de gamme,4.7,122,Cosy,0157834715,false
Les Ferreira,"78 rue Daguerre, 75016 Paris",75016,48.893081,2.261486,Indien,Street food,50-100,Haut de gamme,3.1,925,Moderne,0146373372,true
Brasserie Impérial des Saveurs,"87 boulevard Raspail, 75016 Paris",75016,48.906211,2.35601,Street food,Indien,100+,Haut de gamme,4.3,789,Authentique,0195672951,true
Bertin & Colin,"60 rue de Passy, 75011 Paris",75011,48.909465,2.264476,Brésilien,,10-20,Bon marché,4.7,734,Romantique,0183904981,false
Les Blin,"53 rue des Rosiers, 75019 Paris",75019,48.889743,2.314942,Caribéen,Bistrot,100+,Haut de gamme,3.1,892,Romantique,0153653363,true
Chez Royal du Chef,"74 rue Cler, 75006 Paris",75006,48.854407,2.32018,Japonais,Bistrot,20-30,Moyenne gamme,3.1,994,Festif,0133131748,true
Nicolas & Godard,"31 rue de la Paix, 75007 Paris",75007,48.882309,2.319274,Espagnol,Sushi,100+,Haut de gamme,3.8,127,Traditionnel,0117506980,true
Chez Bernadette,"5 rue de la Roquette, 75018 Paris",75018,48.824202,2.341875,Tapas,Caribéen,20-30,Moyenne gamme,3.6,426,Authentique,0120917436,false
Chez Adélaïde,"63 rue du Commerce, 75014 Paris",75014,48.881972,2.351638,Gastronomique,Français,50-100,Haut de gamme,4.9,645,Moderne,0193311017,false
Chauveau & Bouvier,"90 boulevard de la Villette, 75007 Paris",75007,48.9698,2.399307,Africain,Fruits de mer,100+,Haut de gamme,4.1,317,Branché,0160992527,false
Les Seguin,"67 rue de Bretagne, 75015 Paris",75015,48.801628,2.279501,Thaïlandais,Brasserie,100+,Haut de gamme,3.7,945,Élégant,0192108770,true
Délice Français,"20 rue du Commerce, 75001 Paris",75001,48.862982,2.282808,Tapas,Chinois,30-50,Moyenne gamme,4.9,395,Intime,0159329911,true
Le Authentique de la Tour,"92 rue du Faubourg Saint-Antoine, 75003 Paris",75003,48.833335,2.389591,Tapas,Espagnol,20-30,Moyenne gamme,5.0,1000,Intime,0114457387,true
Gros & Ferreira,"29 rue de la Roquette, 75019 Paris",75019,48.958706,2.395431,Libanais,Tapas,100+,Haut de gamme,4.3,627,Décontracté,0118852618,true
Verdier,"137 rue de Belleville, 75009 Paris",75009,48.884248,2.337934,Brésilien,Bistrot,10-20,Bon marché,4.7,340,Vue panoramique,0162452597,false
Adam,"58 rue de la Paix, 75009 Paris",75009,48.833469,2.305968,Gastronomique,Français,50-100,Haut de gamme,3.4,93,Romantique,0138986419,false
Chez Petit des Saveurs,"111 avenue des Champs-Élysées, 75019 Paris",75019,48.931877,2.355326,Crêperie,,20-30,Moyenne gamme,3.2,254,Festif,0116527640,false
Chez Grand du Marché,"9 boulevard Raspail, 75011 Paris",75011,48.915186,2.345074,Ramen,Indien,10-20,Bon marché,4.8,462,Familial,0148889065,true
Les Nguyen,"98 rue de Passy, 75004 Paris",75004,48.959389,2.383098,Grecque,Street food,100+,Haut de gamme,3.0,403,Authentique,0164898922,true
Martin & Dijoux,"133 rue du Cherche-Midi, 75019 Paris",75019,48.871571,2.373186,Chinois,Ramen,10-20,Bon marché,4.2,870,Animé,0183269175,true
Tanguy & Torres,"48 rue des Rosiers, 75005 Paris",75005,48.852475,2.308293,Végétarien,Grecque,100+,Haut de gamme,4.9,782,Intime,0149847928,true
Au Petit Gourmand,"130 rue Vaugirard, 75002 Paris",75002,48.90196,2.306295,Marocain,,20-30,Moyenne gamme,4.6,359,Animé,0195709898,false
Gallet & Leconte,"85 rue des Martyrs, 75004 Paris",75004,48.831322,2.418279,Italien,Végétarien,20-30,Moyenne gamme,4.4,487,Animé,0140715258,true
Les Pierre,"3 rue Saint-Honoré, 75012 Paris",75012,48.837221,2.29454,Chinois,Brasserie,20-30,Moyenne gamme,4.3,944,Intime,0115133535,true
Chez Aimée,"87 rue Vaugirard, 75008 Paris",75008,48.851862,2.290825,Français,Pizza,10-20,Bon marché,3.0,703,Élégant,0158932453,false
Au Authentique Gourmand,"50 rue du Commerce, 75013 Paris",75013,48.907008,2.297612,Thaïlandais,Tapas,20-30,Moyenne gamme,4.8,791,Animé,0178472951,true
Chez Margot,"131 boulevard Voltaire, 75016 Paris",75016,48.83043,2.371123,Japonais,,100+,Haut de gamme,3.1,530,Terrasse,0192755773,false
Rémy & Ferrand,"122 rue de la Roquette, 75019 Paris",75019,48.943213,2.29327,Italien,Burger,50-100,Haut de gamme,4.7,415,Animé,0149645883,true
Bouvier & Dupré,"120 rue de la Convention, 75014 Paris",75014,48.8853,2.342931,Méditerranéen,Bistrot,10-20,Bon marché,3.4,249,Traditionnel,0192195520,true
Fouquet,"59 boulevard Haussmann, 75004 Paris",75004,48.969729,2.377905,Italien,Crêperie,20-30,Moyenne gamme,4.4,266,Moderne,0197453487,false
Table de Paris,"77 rue Daguerre, 75012 Paris",75012,48.922967,2.285679,Bistrot,,100+,Haut de gamme,4.5,22,Historique,0193752960,true
Chez Corinne,"133 boulevard Voltaire, 75018 Paris",75018,48.945001,2.255118,Ramen,,30-50,Moyenne gamme,4.6,330,Animé,0164996336,true
Chez Thierry,"148 rue Mouffetard, 75010 Paris",75010,48.896488,2.255476,Végétarien,Vietnamien,30-50,Moyenne gamme,3.5,445,Terrasse,0198784851,false
Chez Anouk,"85 avenue Parmentier, 75020 Paris",75020,48.896818,2.326761,Street food,,50-100,Haut de gamme,3.4,410,Branché,0178593470,true
Les Millet,"24 rue des Martyrs, 75004 Paris",75004,48.912127,2.261897,Libanais,Ramen,100+,Haut de gamme,4.0,201,Animé,0118594636,true
Le Vieux de la Seine,"106 rue de Passy, 75006 Paris",75006,48.913015,2.276993,Fruits de mer,Méditerranéen,10-20,Bon marché,3.8,935,Animé,0126364965,false
Table Parisien,"52 rue Caulaincourt, 75015 Paris",75015,48.897943,2.375339,Français,,50-100,Haut de gamme,3.1,418,Calme,0177528272,true
Les Antoine,"117 avenue de Wagram, 75010 Paris",75010,48.91877,2.257423,Libanais,Fruits de mer,100+,Haut de gamme,4.5,478,Terrasse,0194339982,true
Chez Marthe,"71 boulevard de la Villette, 75018 Paris",75018,48.855422,2.326659,Japonais,Ramen,20-30,Moyenne gamme,4.8,431,Cosy,0157192374,false
Les Collet,"54 rue Caulaincourt, 75002 Paris",75002,48.920547,2.273202,Japonais,Tapas,50-100,Haut de gamme,3.8,773,Terrasse,0134601411,true
Lenoir & Rodriguez,"125 rue Didot, 75003 Paris",75003,48.850005,2.340891,Espagnol,,50-100,Haut de gamme,3.3,850,Traditionnel,0130311287,true
Olivier & De Oliveira,"44 rue Saint-Honoré, 75001 Paris",75001,48.908972,2.37179,Indien,Fruits de mer,20-30,Moyenne gamme,4.4,924,Animé,0166991691,false
Brasserie Savoureux du Marché,"2 rue de la Paix, 75013 Paris",75013,48.837497,2.399989,Burger,Espagnol,20-30,Moyenne gamme,3.2,441,Romantique,0111533497,false
Les Labbé,"144 boulevard de la Villette, 75007 Paris",75007,48.802037,2.286171,Caribéen,Bistrot,10-20,Bon marché,3.5,118,Intime,0151321161,false
Les Roger,"12 rue Saint-Honoré, 75007 Paris",75007,48.918374,2.365243,Méditerranéen,,10-20,Bon marché,4.4,820,Décontracté,0142228651,false
Chez Laetitia,"86 avenue Montaigne, 75011 Paris",75011,48.919787,2.25226,Tapas,Thaïlandais,10-20,Bon marché,4.2,609,Authentique,0158759139,false
Chez Bon Gourmand,"110 rue des Rosiers, 75020 Paris",75020,48.853982,2.383785,Indien,Pizza,20-30,Moyenne gamme,3.3,219,Familial,0140866652,true
Relais Parisien de la Tour,"7 rue Lepic, 75011 Paris",75011,48.907063,2.260985,Marocain,Tapas,20-30,Moyenne gamme,4.6,722,Calme,0187587651,true
Colas & Hernandez,"18 rue du Faubourg Saint-Antoine, 75002 Paris",75002,48.852949,2.372685,Indien,,20-30,Moyenne gamme,3.2,616,Animé,0140742064,false
Chez Anne,"109 avenue Montaigne, 75020 Paris",75020,48.875034,2.3359,Mexicain,Tapas,20-30,Moyenne gamme,3.5,810,Historique,0120566058,true
Lévy & Martin,"40 rue de la Gaîté, 75001 Paris",75001,48.863775,2.353024,Bistrot,,30-50,Moyenne gamme,4.2,166,Décontracté,0142586949,true
Cuisine Nouveau du Chef,"49 rue de Rivoli, 75001 Paris",75001,48.900013,2.319494,Ramen,,50-100,Haut de gamme,3.8,435,Terrasse,0157597249,false
Renault,"32 boulevard Raspail, 75019 Paris",75019,48.925063,2.2912,Grecque,,30-50,Moyenne gamme,4.0,510,Intime,0199179359,false
Perret,"93 boulevard de la Villette, 75001 Paris",75001,48.865339,2.370032,Indien,Brasserie,20-30,Moyenne gamme,3.5,626,Décontracté,0111242192,false
L'Atelier Gourmand du Chef,"110 boulevard de Clichy, 75010 Paris",75010,48.845734,2.285619,Caribéen,Bistrot,100+,Haut de gamme,3.6,431,Branché,0123918354,false
Bègue & Lebrun,"79 rue de Rivoli, 75006 Paris",75006,48.833663,2.280937,Végétarien,Grecque,100+,Haut de gamme,3.8,305,Vue panoramique,0131325733,false
L'Atelier Vieux Gourmand,"16 avenue Montaigne, 75007 Paris",75007,48.858166,2.34956,Grecque,Street food,10-20,Bon marché,4.7,180,Branché,0147205825,true
Turpin & Pichon,"125 boulevard de Magenta, 75004 Paris",75004,48.888413,2.41355,Américain,,10-20,Bon marché,4.3,818,Familial,0122377610,true
Les Pichon,"125 rue de la Gaîté, 75011 Paris",75011,48.860525,2.306143,Thaïlandais,Crêperie,30-50,Moyenne gamme,4.6,973,Intime,0195615888,true
Auberge Traditionnel du Chef,"7 rue Saint-Maur, 75004 Paris",75004,48.908472,2.410129,Pizza,,20-30,Moyenne gamme,3.7,643,Historique,0175629434,true
Les Parent,"5 boulevard de la Villette, 75012 Paris",75012,48.960051,2.330941,Sushi,,50-100,Haut de gamme,3.5,506,Terrasse,0188205464,false
Gros,"76 rue Saint-Maur, 75007 Paris",75007,48.875869,2.269665,Gastronomique,,100+,Haut de gamme,3.1,519,Branché,0148968069,true
Clément & Jacquet,"72 rue Lepic, 75009 Paris",75009,48.864092,2.371965,Chinois,Gastronomique,50-100,Haut de gamme,3.2,718,Festif,0138838618,false
Buisson & Dupré,"144 rue de la Convention, 75008 Paris",75008,48.962192,2.348076,Chinois,Végan,10-20,Bon marché,3.7,616,Animé,0124835726,false
L'Atelier Moderne du Palais,"109 rue de Turbigo, 75012 Paris",75012,48.877483,2.352249,Sushi,Espagnol,10-20,Bon marché,3.8,561,Authentique,0150284738,true
Brasserie Royal de la Place,"32 rue de la Roquette, 75019 Paris",75019,48.956937,2.381927,Marocain,Ramen,50-100,Haut de gamme,3.1,839,Festif,0129363899,false
Legendre & Daniel,"101 avenue de l'Opéra, 75006 Paris",75006,48.956921,2.369188,Gastronomique,Grecque,50-100,Haut de gamme,5.0,785,Terrasse,0160197746,true
Menu de Paris,"34 rue de Turbigo, 75019 Paris",75019,48.83566,2.386741,Végétarien,,30-50,Moyenne gamme,3.9,177,Élégant,0166997147,false
Chez Parisien du Chef,"97 rue de la Convention, 75006 Paris",75006,48.906585,2.318679,Végan,Méditerranéen,20-30,Moyenne gamme,4.9,130,Convivial,0193538565,false
Auberge Savoureux de la Tour,"45 rue de Ménilmontant, 75013 Paris",75013,48.8204,2.264048,Sushi,Japonais,50-100,Haut de gamme,4.7,675,Terrasse,0145909366,true
Hamel & Huet,"131 rue Lepic, 75001 Paris",75001,48.82129,2.305289,Méditerranéen,Ramen,10-20,Bon marché,4.6,195,Terrasse,0171929965,true
Maison Savoureux de Paris,"133 boulevard Voltaire, 75018 Paris",75018,48.821899,2.285059,Sushi,Marocain,10-20,Bon marché,3.4,623,Décontracté,0110816750,true
La Grand de Paris,"130 avenue de l'Opéra, 75012 Paris",75012,48.883375,2.303199,Fruits de mer,Français,20-30,Moyenne gamme,3.6,978,Convivial,0147947866,true
Les Ruiz,"138 rue Caulaincourt, 75007 Paris",75007,48.847157,2.373948,Italien,Burger,20-30,Moyenne gamme,3.6,862,Animé,0127878037,false
Jean & Philippe,"20 rue Vaugirard, 75009 Paris",75009,48.969211,2.368456,Libanais,Végan,30-50,Moyenne gamme,4.4,972,Élégant,0178361990,false
Chez William,"96 avenue Parmentier, 75017 Paris",75017,48.89035,2.366276,Grecque,,30-50,Moyenne gamme,5.0,454,Terrasse,0113874119,true
Laurent & Lambert,"17 rue du Cherche-Midi, 75003 Paris",75003,48.81785,2.407358,Thaïlandais,,20-30,Moyenne gamme,4.7,241,Traditionnel,0111225838,true
Chez Patrick,"135 rue Réaumur, 75010 Paris",75010,48.927818,2.280714,Méditerranéen,Crêperie,100+,Haut de gamme,4.7,574,Traditionnel,0187221631,true
Menu Impérial,"33 boulevard de Clichy, 75001 Paris",75001,48.920154,2.281128,Indien,Fruits de mer,50-100,Haut de gamme,4.1,283,Familial,0191574196,false
Les Ollivier,"120 rue Caulaincourt, 75010 Paris",75010,48.813038,2.290806,Grecque,Ramen,20-30,Moyenne gamme,3.6,888,Branché,0149625021,false
La Grand de la Place,"74 rue Vaugirard, 75016 Paris",75016,48.950974,2.36864,Végétarien,,50-100,Haut de gamme,4.4,964,Élégant,0171737597,false
Bourdon & Lecoq,"4 rue de Belleville, 75007 Paris",75007,48.82865,2.408132,Ramen,Grecque,100+,Haut de gamme,4.5,260,Convivial,0197871587,true
Au Royal de la Seine,"14 rue de la Convention, 75016 Paris",75016,48.80038,2.3573,Vietnamien,,30-50,Moyenne gamme,4.8,265,Cosy,0147487147,true
Legrand & Pineau,"56 avenue de l'Opéra, 75017 Paris",75017,48.818218,2.309453,Végétarien,,100+,Haut de gamme,4.7,68,Intime,0110886852,true
Chez Arnaude,"103 avenue de Wagram, 75001 Paris",75001,48.880019,2.313633,Méditerranéen,Gastronomique,100+,Haut de gamme,4.8,430,Cosy,0172102994,true
Les Lombard,"110 avenue Montaigne, 75018 Paris",75018,48.806844,2.317073,Végan,,50-100,Haut de gamme,3.3,372,Vue panoramique,0110553524,true
Les Bruneau,"9 rue des Martyrs, 75007 Paris",75007,48.957005,2.393321,Tapas,,10-20,Bon marché,3.8,573,Historique,0197265161,false
Leclercq & Wagner,"34 rue Oberkampf, 75004 Paris",75004,48.873836,2.299209,Fruits de mer,Africain,10-20,Bon marché,4.5,252,Familial,0196536486,false
Grenier & Jacob,"22 rue de la Convention, 75008 Paris",75008,48.937692,2.369195,Africain,Pizza,10-20,Bon marché,4.7,727,Calme,0195643570,false
La Bon Gourmand,"38 rue de la Convention, 75001 Paris",75001,48.872602,2.258781,Japonais,,50-100,Haut de gamme,3.8,323,Calme,0138536471,true
Bistrot Délicieux de la Place,"108 rue des Rosiers, 75011 Paris",75011,48.883519,2.306828,Fruits de mer,Italien,30-50,Moyenne gamme,3.4,493,Traditionnel,0187226533,true
Le Parisien des Délices,"34 rue du Cherche-Midi, 75012 Paris",75012,48.950823,2.272183,Crêperie,,100+,Haut de gamme,4.1,390,Calme,0193453684,true
Costa & Alexandre,"26 rue Saint-Honoré, 75018 Paris",75018,48.95157,2.37909,Mexicain,,20-30,Moyenne gamme,4.1,167,Familial,0126346380,false
Berger & Caron,"31 rue de la Convention, 75003 Paris",75003,48.810335,2.415321,Africain,,100+,Haut de gamme,4.6,180,Traditionnel,0199264715,false
Chez Marcelle,"102 boulevard Barbès, 75018 Paris",75018,48.897223,2.350659,Végan,Africain,50-100,Haut de gamme,4.1,409,Terrasse,0187443633,true
Hamel,"132 rue Didot, 75017 Paris",75017,48.806645,2.275184,Gastronomique,Espagnol,30-50,Moyenne gamme,4.4,575,Cosy,0131381578,true
Les Merle,"35 rue de la Roquette, 75002 Paris",75002,48.919928,2.343377,Espagnol,,20-30,Moyenne gamme,4.1,11,Intime,0190875751,true
Vasseur & Schmitt,"76 rue de Turbigo, 75002 Paris",75002,48.932292,2.382687,Français,,20-30,Moyenne gamme,4.5,296,Décontracté,0142127894,false
Girard,"98 rue de Ménilmontant, 75009 Paris",75009,48.924068,2.323764,Tapas,Marocain,50-100,Haut de gamme,3.4,285,Animé,0184906029,true
Chez Frédérique,"123 rue Montorgueil, 75016 Paris",75016,48.830215,2.317014,Libanais,,20-30,Moyenne gamme,3.4,512,Décontracté,0192461249,true
Table Parisien du Palais,"26 rue Réaumur, 75017 Paris",75017,48.845502,2.409562,Français,Bistrot,50-100,Haut de gamme,3.0,856,Romantique,0192152641,false
Café Moderne de la Place,"22 rue du Faubourg Saint-Antoine, 75005 Paris",75005,48.820923,2.390237,Brésilien,,30-50,Moyenne gamme,3.7,168,Calme,0117799844,false
Chez Royal du Palais,"37 rue de Rivoli, 75008 Paris",75008,48.838169,2.412599,Grecque,Crêperie,30-50,Moyenne gamme,3.5,910,Terrasse,0197247231,false
Les Rivière,"92 rue Saint-Honoré, 75020 Paris",75020,48.915504,2.275537,Vietnamien,,10-20,Bon marché,4.8,629,Élégant,0132647752,false
Les Pineau,"74 avenue de Wagram, 75004 Paris",75004,48.922628,2.383543,Méditerranéen,Pizza,10-20,Bon marché,4.6,892,Élégant,0193285028,true
Lucas & Barthelemy,"18 rue Oberkampf, 75019 Paris",75019,48.870371,2.384895,Américain,Crêperie,20-30,Moyenne gamme,3.4,404,Intime,0150736471,false
Les Martineau,"36 rue de Ménilmontant, 75008 Paris",75008,48.932021,2.38792,Caribéen,Gastronomique,50-100,Haut de gamme,4.1,851,Calme,0159208463,false
Le Nouveau du Marché,"93 rue Vaugirard, 75016 Paris",75016,48.955202,2.291225,Végan,Vietnamien,30-50,Moyenne gamme,4.7,897,Élégant,0147682880,false
Chez Gabrielle,"15 rue Mouffetard, 75004 Paris",75004,48.947981,2.255132,Ramen,Français,50-100,Haut de gamme,3.7,728,Cosy,0194841971,false
Les Valentin,"37 rue Montorgueil, 75008 Paris",75008,48.875476,2.359624,Grecque,Fruits de mer,50-100,Haut de gamme,4.5,776,Convivial,0199487062,false
Au Petit du Coin,"9 rue Saint-Maur, 75006 Paris",75006,48.826656,2.415431,Français,Bistrot,50-100,Haut de gamme,4.1,859,Traditionnel,0183744939,true
Chez Timothée,"103 rue de Belleville, 75002 Paris",75002,48.86468,2.259294,Libanais,,100+,Haut de gamme,4.2,89,Authentique,0171509392,true
Pichon & Raymond,"50 rue de la Roquette, 75004 Paris",75004,48.85255,2.343788,Vietnamien,Crêperie,10-20,Bon marché,3.5,176,Cosy,0118378611,false
Les Impérial des Gourmets,"12 avenue Parmentier, 75016 Paris",75016,48.923367,2.415555,Thaïlandais,Pizza,10-20,Bon marché,5.0,779,Moderne,0160743450,false
Maison Grand des Délices,"39 avenue des Champs-Élysées, 75019 Paris",75019,48.937271,2.361217,Brasserie,Italien,30-50,Moyenne gamme,3.3,708,Authentique,0120902139,false
Chez Sylvie,"129 avenue de Clichy, 75020 Paris",75020,48.903766,2.26275,Thaïlandais,Fruits de mer,30-50,Moyenne gamme,3.6,648,Vue panoramique,0115975940,true
Brasserie Royal de Paris,"128 boulevard Haussmann, 75015 Paris",75015,48.929735,2.325148,Mexicain,Pizza,100+,Haut de gamme,3.7,101,Branché,0132684370,false
Lévy,"125 boulevard Saint-Germain, 75012 Paris",75012,48.844681,2.398841,Bistrot,Indien,50-100,Haut de gamme,3.7,875,Festif,0157209762,false
La Traditionnel Gourmand,"144 rue de Rivoli, 75005 Paris",75005,48.89097,2.389109,Pizza,Coréen,10-20,Bon marché,3.4,905,Authentique,0195215469,true
Chez Gourmand du Palais,"52 rue de Passy, 75011 Paris",75011,48.961251,2.274737,Thaïlandais,,50-100,Haut de gamme,3.4,769,Historique,0124456814,false
Bernier & Ollivier,"16 place Vendôme, 75014 Paris",75014,48.850717,2.371075,Burger,Français,50-100,Haut de gamme,3.5,660,Décontracté,0120281845,true
Lebreton & Poirier,"135 rue de Buci, 75009 Paris",75009,48.917101,2.277317,Italien,Bistrot,30-50,Moyenne gamme,4.9,314,Décontracté,0135546371,true
Hamel & Hoarau,"91 rue du Temple, 75019 Paris",75019,48.877972,2.275073,Français,Street food,20-30,Moyenne gamme,3.2,693,Élégant,0151955011,true
Gosselin,"105 boulevard de Clichy, 75017 Paris",75017,48.931645,2.35216,Brasserie,,20-30,Moyenne gamme,4.3,664,Cosy,0114373463,false
Chez Renée,"90 rue de Buci, 75007 Paris",75007,48.969838,2.320389,Street food,,30-50,Moyenne gamme,4.6,26,Moderne,0149742599,true
Les Dijoux,"91 rue du Commerce, 75014 Paris",75014,48.917054,2.324374,Thaïlandais,Fruits de mer,50-100,Haut de gamme,3.9,191,Décontracté,0179655846,false
Le Impérial du Palais,"27 boulevard Barbès, 75020 Paris",75020,48.819465,2.395578,Végan,Africain,100+,Haut de gamme,4.6,693,Moderne,0163373868,false
Table Gourmand du Coin,"102 rue de Rivoli, 75012 Paris",75012,48.804462,2.384387,Gastronomique,Américain,30-50,Moyenne gamme,4.7,824,Vue panoramique,0196401063,true
Dupuis & Paris,"45 rue de Passy, 75011 Paris",75011,48.83464,2.265855,Grecque,Ramen,20-30,Moyenne gamme,4.0,656,Terrasse,0190438030,false
Besnard & Garnier,"3 boulevard de la Villette, 75019 Paris",75019,48.910929,2.287698,Caribéen,,10-20,Bon marché,4.1,35,Élégant,0168919055,true
Chez Michèle,"138 rue des Rosiers, 75013 Paris",75013,48.848019,2.402083,Tapas,Japonais,20-30,Moyenne gamme,4.3,663,Cosy,0124688625,true
Restaurant Moderne Gourmand,"101 boulevard Haussmann, 75016 Paris",75016,48.953618,2.362143,Bistrot,Japonais,20-30,Moyenne gamme,4.4,394,Festif,0191673033,true
Les Huet,"124 rue de Belleville, 75020 Paris",75020,48.819514,2.286883,Libanais,Pizza,10-20,Bon marché,3.4,40,Romantique,0176752937,false
Les Maillard,"36 rue Lepic, 75003 Paris",75003,48.956799,2.292516,Fruits de mer,Méditerranéen,20-30,Moyenne gamme,4.9,366,Moderne,0169736575,false
Chez Xavier,"72 rue de Passy, 75004 Paris",75004,48.865118,2.283953,Mexicain,Burger,50-100,Haut de gamme,3.9,466,Vue panoramique,0186445089,true
Les Julien,"96 boulevard de la Villette, 75003 Paris",75003,48.854856,2.384452,Italien,,30-50,Moyenne gamme,4.2,310,Convivial,0155601324,true
Restaurant Délicieux du Chef,"81 rue Oberkampf, 75001 Paris",75001,48.83607,2.286969,Français,,20-30,Moyenne gamme,3.9,824,Festif,0139811859,true
Dos Santos & Fernandes,"112 rue de Turbigo, 75011 Paris",75011,48.900499,2.290192,Italien,,50-100,Haut de gamme,3.1,291,Vue panoramique,0125256731,false
Le Savoureux de la Tour,"34 rue de Passy, 75002 Paris",75002,48.894597,2.30324,Gastronomique,Français,10-20,Bon marché,3.9,859,Vue panoramique,0148455054,true
Les Grondin,"117 boulevard Barbès, 75004 Paris",75004,48.832497,2.403387,Street food,Espagnol,10-20,Bon marché,4.7,152,Cosy,0151986538,true
Les Jacob,"138 rue de Rivoli, 75002 Paris",75002,48.820383,2.304287,Italien,Pizza,10-20,Bon marché,3.5,714,Terrasse,0144993127,false
Chez Marine,"150 rue de la Pompe, 75015 Paris",75015,48.920935,2.310012,Africain,Street food,50-100,Haut de gamme,4.3,297,Festif,0171382143,false
Chez Maryse,"20 rue Saint-Honoré, 75016 Paris",75016,48.929283,2.30301,Français,Brasserie,50-100,Haut de gamme,3.4,117,Festif,0136857775,false
Benoit & Andre,"40 rue Caulaincourt, 75004 Paris",75004,48.827913,2.302215,Burger,,50-100,Haut de gamme,5.0,898,Convivial,0135613418,true
Legros & Cordier,"28 rue Oberkampf, 75008 Paris",75008,48.836051,2.317478,Brésilien,Végétarien,50-100,Haut de gamme,4.3,473,Intime,0143258020,true
Rémy & Allard,"131 rue du Cherche-Midi, 75002 Paris",75002,48.890026,2.333915,Vietnamien,Tapas,50-100,Haut de gamme,4.5,442,Animé,0147346132,false
Turpin & Legros,"28 boulevard de Magenta, 75002 Paris",75002,48.918917,2.318775,Chinois,Végétarien,10-20,Bon marché,4.2,254,Branché,0178224538,false
Bonnet & Leclerc,"26 rue Lepic, 75009 Paris",75009,48.90576,2.375645,Libanais,,30-50,Moyenne gamme,4.3,732,Moderne,0110223374,false
Chez Victoire,"44 rue de Turbigo, 75003 Paris",75003,48.949814,2.279023,Thaïlandais,,20-30,Moyenne gamme,4.9,692,Historique,0164521232,false
Cuisine Impérial du Marché,"126 rue des Rosiers, 75016 Paris",75016,48.924919,2.418265,Français,Pizza,20-30,Moyenne gamme,4.1,181,Élégant,0122224852,true
Les De Oliveira,"125 boulevard de Clichy, 75012 Paris",75012,48.803524,2.416368,Vietnamien,Crêperie,100+,Haut de gamme,4.5,887,Historique,0124449776,false
Chez Amélie,"37 avenue de Wagram, 75016 Paris",75016,48.952868,2.326376,Grecque,Ramen,10-20,Bon marché,3.4,987,Terrasse,0191234590,false
Goût Royal,"90 rue du Cherche-Midi, 75013 Paris",75013,48.96481,2.334818,Américain,Végétarien,100+,Haut de gamme,4.0,361,Cosy,0165688254,true
Mary & Grenier,"39 avenue de Clichy, 75010 Paris",75010,48.883022,2.250865,Libanais,Pizza,10-20,Bon marché,4.6,25,Authentique,0115374685,true
Les Lefebvre,"1 rue de la Paix, 75009 Paris",75009,48.956104,2.299436,Mexicain,,100+,Haut de gamme,4.3,797,Élégant,0121442835,true
Restaurant Nouveau du Coin,"99 rue de la Convention, 75013 Paris",75013,48.833916,2.273067,Végan,,30-50,Moyenne gamme,4.2,187,Vue panoramique,0196518427,false
Assiette Royal,"79 rue Montorgueil, 75010 Paris",75010,48.879624,2.322704,Brésilien,Bistrot,50-100,Haut de gamme,3.2,549,Authentique,0198507497,false
Salmon & Bruneau,"106 rue Didot, 75001 Paris",75001,48.892356,2.346148,Végétarien,,50-100,Haut de gamme,3.2,153,Moderne,0141847557,true
Les Gillet,"14 rue de Passy, 75005 Paris",75005,48.816558,2.299398,Français,Sushi,100+,Haut de gamme,3.9,65,Branché,0117449323,true
Martel & Robert,"85 rue de la Paix, 75004 Paris",75004,48.851152,2.302851,Tapas,Italien,20-30,Moyenne gamme,4.0,585,Historique,0127389691,false
Léger,"52 rue Oberkampf, 75003 Paris",75003,48.882232,2.281287,Chinois,Burger,20-30,Moyenne gamme,3.2,35,Convivial,0166601725,true
Chez Odette,"140 boulevard de Clichy, 75020 Paris",75020,48.881679,2.299206,Chinois,Tapas,10-20,Bon marché,3.4,848,Calme,0131759979,true
Humbert,"127 place Vendôme, 75009 Paris",75009,48.909669,2.401848,Chinois,Bistrot,20-30,Moyenne gamme,3.1,478,Cosy,0182591184,true
Guyon & Morvan,"118 rue de la Roquette, 75001 Paris",75001,48.859817,2.372266,Crêperie,Africain,20-30,Moyenne gamme,3.7,733,Convivial,0159751832,false
Les Marion,"118 rue de Bretagne, 75005 Paris",75005,48.920445,2.336187,Mexicain,,10-20,Bon marché,4.8,670,Historique,0158708794,true
Les Vasseur,"149 avenue de Wagram, 75019 Paris",75019,48.966826,2.387454,Coréen,Végétarien,20-30,Moyenne gamme,3.5,691,Cosy,0173967051,false
Perrier & Marques,"108 rue Saint-Honoré, 75002 Paris",75002,48.822647,2.358357,Chinois,Ramen,10-20,Bon marché,3.9,393,Romantique,0132512399,true
Potier & Lebon,"113 boulevard de Magenta, 75010 Paris",75010,48.869365,2.342919,Libanais,Gastronomique,20-30,Moyenne gamme,3.2,34,Cosy,0136142710,true
Maison Savoureux Gourmand,"54 avenue Parmentier, 75016 Paris",75016,48.933006,2.300699,Vietnamien,Gastronomique,20-30,Moyenne gamme,4.6,459,Vue panoramique,0190581982,true
La Impérial des Délices,"85 avenue des Champs-Élysées, 75008 Paris",75008,48.945043,2.408408,Pizza,,30-50,Moyenne gamme,3.8,376,Branché,0130461978,false
Bistrot Parisien du Marché,"9 rue du Cherche-Midi, 75014 Paris",75014,48.96116,2.403735,Thaïlandais,,10-20,Bon marché,3.3,570,Festif,0194174073,true
Les Gourmand des Gourmets,"21 rue Vaugirard, 75016 Paris",75016,48.944472,2.415149,Pizza,,10-20,Bon marché,3.1,529,Calme,0193546571,true
Bigot,"7 rue du Faubourg Saint-Antoine, 75018 Paris",75018,48.893423,2.269649,Coréen,Ramen,10-20,Bon marché,4.1,63,Terrasse,0158992665,false
Carlier,"95 avenue de Wagram, 75007 Paris",75007,48.874555,2.298041,Italien,Végan,100+,Haut de gamme,3.0,432,Familial,0111411719,true
Les Thibault,"90 rue Saint-Maur, 75008 Paris",75008,48.945989,2.325402,Fruits de mer,Méditerranéen,10-20,Bon marché,4.3,88,Traditionnel,0179367355,false
Les Dupré,"94 rue Vaugirard, 75010 Paris",75010,48.813336,2.405048,Burger,Américain,30-50,Moyenne gamme,4.4,525,Cosy,0116546289,true
Les Michel,"37 boulevard Saint-Germain, 75008 Paris",75008,48.814364,2.297446,Brésilien,,10-20,Bon marché,4.0,44,Traditionnel,0145855948,false
Weiss,"99 boulevard de Grenelle, 75002 Paris",75002,48.857157,2.390787,Coréen,Bistrot,100+,Haut de gamme,3.1,322,Familial,0179541387,false
Les Dufour,"56 avenue des Champs-Élysées, 75011 Paris",75011,48.922267,2.380732,Street food,Grecque,10-20,Bon marché,4.6,576,Terrasse,0196467869,true
Les Pinto,"42 boulevard Raspail, 75015 Paris",75015,48.867082,2.354643,Burger,Français,30-50,Moyenne gamme,4.6,983,Traditionnel,0120417947,true
Les Vidal,"69 avenue de la République, 75009 Paris",75009,48.801508,2.256291,Sushi,,10-20,Bon marché,3.2,592,Festif,0143326669,true
Bertin & Gillet,"143 rue de Buci, 75014 Paris",75014,48.821628,2.357157,Japonais,Street food,100+,Haut de gamme,3.6,75,Authentique,0133434543,false
Chez Victor,"13 rue Lepic, 75004 Paris",75004,48.945773,2.310067,Libanais,Brasserie,100+,Haut de gamme,3.6,576,Calme,0117434212,false
Restaurant Grand de Paris,"130 boulevard de Grenelle, 75004 Paris",75004,48.855512,2.383988,Espagnol,Street food,30-50,Moyenne gamme,4.7,707,Vue panoramique,0119926446,true
De Sousa & Millet,"96 rue de la Gaîté, 75010 Paris",75010,48.926147,2.383189,Libanais,Pizza,20-30,Moyenne gamme,4.8,36,Cosy,0187375075,false
Les Marques,"56 boulevard Raspail, 75019 Paris",75019,48.871074,2.374618,Indien,Tapas,10-20,Bon marché,4.9,991,Calme,0182748390,false
Samson & Gillet,"135 avenue de Clichy, 75015 Paris",75015,48.819621,2.290978,Marocain,,30-50,Moyenne gamme,4.8,346,Calme,0156396850,false
Lopes & Chrétien,"93 rue Montorgueil, 75012 Paris",75012,48.954575,2.364598,Japonais,,50-100,Haut de gamme,4.2,469,Vue panoramique,0139822678,true
Chez Véronique,"67 rue Daguerre, 75011 Paris",75011,48.844774,2.344278,Japonais,Gastronomique,20-30,Moyenne gamme,4.2,657,Animé,0133681131,true
De Oliveira & Fleury,"26 rue Mouffetard, 75002 Paris",75002,48.841044,2.299877,Végétarien,Japonais,20-30,Moyenne gamme,4.0,552,Terrasse,0164552661,false
Les Lelièvre,"28 rue Réaumur, 75002 Paris",75002,48.92303,2.350225,Vietnamien,,50-100,Haut de gamme,4.3,768,Vue panoramique,0147719927,false
Restaurant Parisien du Coin,"117 boulevard Raspail, 75011 Paris",75011,48.952541,2.348571,Africain,,30-50,Moyenne gamme,4.9,109,Calme,0148735316,false
Moreau & Bouvet,"74 rue de Turbigo, 75013 Paris",75013,48.853442,2.309049,Libanais,,10-20,Bon marché,4.6,762,Animé,0165764583,false
Cuisine Savoureux Gourmand,"44 rue Daguerre, 75009 Paris",75009,48.891771,2.385829,Sushi,Espagnol,30-50,Moyenne gamme,3.3,221,Convivial,0131138615,false
Le Délicieux Gourmand,"73 avenue Parmentier, 75014 Paris",75014,48.823259,2.297337,Gastronomique,Brésilien,30-50,Moyenne gamme,4.8,743,Cosy,0166657343,true
Marty,"21 rue Lepic, 75003 Paris",75003,48.943043,2.362392,Africain,Brasserie,100+,Haut de gamme,4.3,85,Festif,0114652276,true
Auberge Moderne Gourmand,"51 boulevard de Clichy, 75016 Paris",75016,48.894815,2.285453,Libanais,,30-50,Moyenne gamme,3.3,660,Branché,0176371065,true
Chez Augustin,"10 rue de la Pompe, 75009 Paris",75009,48.907105,2.351633,Espagnol,Brasserie,100+,Haut de gamme,4.3,194,Moderne,0139479572,true
Palais Royal,"25 rue Lepic, 75004 Paris",75004,48.854214,2.269301,Sushi,,50-100,Haut de gamme,4.9,343,Calme,0194642432,true
Faivre & Martinez,"33 rue de la Gaîté, 75016 Paris",75016,48.869909,2.387535,Espagnol,Pizza,100+,Haut de gamme,3.4,881,Vue panoramique,0117815143,false
Hoarau & Bourgeois,"103 boulevard de Clichy, 75002 Paris",75002,48.904262,2.306046,Espagnol,Végétarien,30-50,Moyenne gamme,3.9,236,Décontracté,0178369024,false
Saveur Français,"6 boulevard Raspail, 75003 Paris",75003,48.942485,2.317239,Crêperie,,100+,Haut de gamme,3.1,60,Convivial,0136567835,false
Chez Virginie,"75 rue des Martyrs, 75012 Paris",75012,48.848125,2.254122,Marocain,Burger,10-20,Bon marché,3.1,30,Convivial,0123746072,true
Chez Alphonse,"9 rue de la Roquette, 75004 Paris",75004,48.892089,2.406226,Bistrot,Indien,30-50,Moyenne gamme,4.7,88,Branché,0174631211,false
Laroche & Noël,"50 rue Saint-Maur, 75010 Paris",75010,48.873021,2.287783,Bistrot,Français,30-50,Moyenne gamme,3.5,217,Cosy,0143938370,true
Thibault & Carpentier,"144 rue de la Roquette, 75016 Paris",75016,48.965782,2.317549,Caribéen,Bistrot,10-20,Bon marché,5.0,755,Terrasse,0157792367,true
Chez Chantal,"115 place Vendôme, 75016 Paris",75016,48.904803,2.330497,Mexicain,Sushi,10-20,Bon marché,3.2,183,Animé,0172854120,true
Bonnin & Boucher,"65 rue de la Pompe, 75010 Paris",75010,48.878433,2.332109,Fruits de mer,Grecque,10-20,Bon marché,3.5,224,Historique,0179735093,true
Gosselin & Tessier,"20 boulevard Raspail, 75005 Paris",75005,48.88918,2.273777,Fruits de mer,Chinois,20-30,Moyenne gamme,3.4,900,Cosy,0114647331,false
Relais Bon de la Place,"70 avenue de Clichy, 75011 Paris",75011,48.87869,2.409154,Vietnamien,Fruits de mer,20-30,Moyenne gamme,3.6,711,Animé,0188577687,true
Chez Jacques,"43 avenue de Clichy, 75016 Paris",75016,48.877961,2.266101,Grecque,Brasserie,10-20,Bon marché,5.0,15,Moderne,0199343598,true
Chez Julie,"18 avenue de Wagram, 75018 Paris",75018,48.958832,2.345389,Crêperie,Marocain,30-50,Moyenne gamme,3.6,943,Vue panoramique,0184495789,false
Chez Traditionnel Gourmand,"72 avenue Montaigne, 75009 Paris",75009,48.925335,2.354701,Indien,,100+,Haut de gamme,4.3,402,Festif,0183858745,false
Letellier & Wagner,"54 rue des Martyrs, 75001 Paris",75001,48.874747,2.363023,Burger,Indien,20-30,Moyenne gamme,3.3,905,Romantique,0151191627,false
Les Noël,"78 rue Caulaincourt, 75004 Paris",75004,48.962411,2.410733,Coréen,Bistrot,50-100,Haut de gamme,3.7,868,Convivial,0150772087,false
Chez Thérèse,"112 rue Vaugirard, 75015 Paris",75015,48.836343,2.345165,Américain,Gastronomique,50-100,Haut de gamme,4.3,192,Romantique,0156699554,false
Langlois & Nicolas,"96 avenue Montaigne, 75001 Paris",75001,48.910027,2.359085,Vietnamien,Végétarien,100+,Haut de gamme,3.6,106,Intime,0142741187,true
Delorme & Michel,"12 rue du Temple, 75009 Paris",75009,48.927489,2.360083,Italien,,10-20,Bon marché,4.7,959,Historique,0187906872,true
Les Langlois,"8 rue de Belleville, 75005 Paris",75005,48.945841,2.297171,Fruits de mer,,20-30,Moyenne gamme,3.2,864,Cosy,0117669117,true
Auger,"104 rue de la Pompe, 75002 Paris",75002,48.908001,2.393161,Africain,Pizza,10-20,Bon marché,3.3,55,Traditionnel,0187359874,true
Restaurant Grand de la Seine,"120 avenue Parmentier, 75003 Paris",75003,48.836979,2.31367,Brésilien,Végan,20-30,Moyenne gamme,4.5,200,Festif,0185901231,false
Sanchez,"64 avenue de l'Opéra, 75007 Paris",75007,48.832002,2.400207,Ramen,Italien,50-100,Haut de gamme,4.4,192,Traditionnel,0127825062,true
Les Techer,"67 rue du Temple, 75015 Paris",75015,48.899488,2.27647,Méditerranéen,Crêperie,30-50,Moyenne gamme,4.5,545,Authentique,0190973114,false
Berger & Henry,"89 rue de Ménilmontant, 75010 Paris",75010,48.819601,2.361916,Africain,Ramen,30-50,Moyenne gamme,3.2,801,Animé,0143376943,true
Leleu & Hernandez,"36 rue Didot, 75019 Paris",75019,48.91014,2.267035,Coréen,Végétarien,30-50,Moyenne gamme,4.4,654,Intime,0111306370,true
Les Pottier,"79 rue des Martyrs, 75015 Paris",75015,48.90216,2.332035,Français,Street food,50-100,Haut de gamme,4.2,721,Vue panoramique,0161704142,false
Brunel & Mathieu,"77 boulevard Saint-Germain, 75008 Paris",75008,48.96409,2.410284,Gastronomique,Grecque,30-50,Moyenne gamme,4.9,420,Romantique,0130753148,false
Chez Stéphanie,"146 rue Mouffetard, 75005 Paris",75005,48.825073,2.400102,Italien,,30-50,Moyenne gamme,4.6,154,Intime,0168603168,true
Les Moreno,"79 rue Montorgueil, 75006 Paris",75006,48.893471,2.316988,Marocain,Ramen,20-30,Moyenne gamme,3.3,578,Intime,0110713054,true
Dupont & Perrot,"97 rue Didot, 75008 Paris",75008,48.858967,2.363879,Végan,Thaïlandais,20-30,Moyenne gamme,3.8,344,Moderne,0196648660,false
Les Rossi,"93 rue du Cherche-Midi, 75017 Paris",75017,48.85773,2.361188,Street food,Coréen,10-20,Bon marché,4.3,151,Historique,0134153748,true
Gilbert & Peltier,"39 rue Daguerre, 75010 Paris",75010,48.817239,2.396619,Méditerranéen,Bistrot,20-30,Moyenne gamme,3.3,708,Convivial,0123692054,false
Au Impérial des Délices,"99 boulevard de Magenta, 75015 Paris",75015,48.921044,2.393509,Coréen,Végétarien,30-50,Moyenne gamme,3.8,769,Cosy,0187677457,false
Leblanc & Richard,"137 boulevard Raspail, 75003 Paris",75003,48.947542,2.328243,Thaïlandais,,100+,Haut de gamme,3.5,537,Authentique,0165166946,true
Camus,"95 boulevard de Clichy, 75014 Paris",75014,48.908117,2.351282,Mexicain,,10-20,Bon marché,4.1,193,Moderne,0155631267,true
Les Gautier,"10 rue du Commerce, 75013 Paris",75013,48.940347,2.391936,Japonais,Fruits de mer,20-30,Moyenne gamme,4.3,451,Traditionnel,0154689889,true
La Vieux des Gourmets,"26 boulevard Raspail, 75017 Paris",75017,48.897052,2.419136,Végan,Mexicain,50-100,Haut de gamme,3.8,198,Traditionnel,0193206524,false
Cuisine Nouveau du Palais,"71 rue du Temple, 75006 Paris",75006,48.878615,2.384344,Italien,Fruits de mer,30-50,Moyenne gamme,3.5,426,Animé,0112639426,true
Les Lesage,"25 rue Lepic, 75008 Paris",75008,48.866137,2.408078,Thaïlandais,Street food,30-50,Moyenne gamme,4.5,633,Authentique,0185639186,true
Café Délicieux des Saveurs,"39 rue Didot, 75016 Paris",75016,48.927162,2.340031,Libanais,Pizza,50-100,Haut de gamme,3.1,882,Branché,0190728154,true
Les Étienne,"75 rue de Turbigo, 75015 Paris",75015,48.968246,2.313798,Français,Street food,20-30,Moyenne gamme,4.2,588,Vue panoramique,0163124681,false
Bousquet & Jacques,"56 rue de Buci, 75004 Paris",75004,48.907147,2.36292,Libanais,,50-100,Haut de gamme,4.1,370,Animé,0163864550,false
Les Neveu,"129 rue du Commerce, 75018 Paris",75018,48.856789,2.328884,Coréen,Brasserie,30-50,Moyenne gamme,4.7,470,Décontracté,0132614610,false
Relais Gourmand du Palais,"49 boulevard de la Villette, 75001 Paris",75001,48.906334,2.366342,Indien,Gastronomique,10-20,Bon marché,4.2,759,Vue panoramique,0112518841,true
Les Gay,"6 rue Saint-Maur, 75013 Paris",75013,48.811018,2.255251,Marocain,,20-30,Moyenne gamme,3.9,750,Calme,0132703551,true
Chez Joseph,"114 rue des Rosiers, 75006 Paris",75006,48.88836,2.329936,Gastronomique,Thaïlandais,20-30,Moyenne gamme,3.5,749,Branché,0110149796,true
Peron & Barbe,"19 rue de la Pompe, 75009 Paris",75009,48.957656,2.356976,Gastronomique,Caribéen,10-20,Bon marché,3.9,857,Familial,0147601556,true
Gilles & Dupuy,"110 rue Oberkampf, 75004 Paris",75004,48.841322,2.33204,Américain,,100+,Haut de gamme,4.5,124,Décontracté,0156629453,true
Les Chauvet,"25 rue du Cherche-Midi, 75003 Paris",75003,48.901053,2.379425,Méditerranéen,,30-50,Moyenne gamme,3.7,715,Authentique,0152679943,false
Chez Élise,"95 avenue Parmentier, 75012 Paris",75012,48.918164,2.274909,Pizza,,20-30,Moyenne gamme,4.1,322,Historique,0166964729,false
Les Becker,"99 boulevard de Clichy, 75008 Paris",75008,48.965309,2.359455,Marocain,Fruits de mer,100+,Haut de gamme,3.0,382,Convivial,0176617189,false
Les Guillet,"97 boulevard Barbès, 75006 Paris",75006,48.903469,2.37389,Brasserie,Coréen,10-20,Bon marché,4.3,76,Festif,0138493638,true
Restaurant Savoureux des Saveurs,"146 boulevard de la Villette, 75001 Paris",75001,48.846151,2.413482,Sushi,,20-30,Moyenne gamme,4.5,382,Familial,0161902252,false
Turpin & Nguyen,"146 avenue de Clichy, 75008 Paris",75008,48.815531,2.282302,Libanais,Tapas,20-30,Moyenne gamme,3.5,744,Authentique,0132158744,false
Breton,"34 avenue de Clichy, 75010 Paris",75010,48.875123,2.330926,Espagnol,Sushi,100+,Haut de gamme,4.0,110,Familial,0150911935,true
L'Atelier Impérial des Saveurs,"77 avenue Parmentier, 75001 Paris",75001,48.907292,2.305869,Chinois,,50-100,Haut de gamme,4.6,209,Authentique,0110426286,true
Moulin & Fernandez,"132 rue Daguerre, 75010 Paris",75010,48.96564,2.329986,Caribéen,Pizza,100+,Haut de gamme,4.0,650,Authentique,0124337210,true
Chez Catherine,"17 rue de la Convention, 75010 Paris",75010,48.930291,2.330219,Brésilien,Tapas,100+,Haut de gamme,4.6,208,Cosy,0139374974,true
Les Berger,"54 avenue Parmentier, 75005 Paris",75005,48.870875,2.3735,Marocain,,20-30,Moyenne gamme,4.7,634,Décontracté,0151767093,false
Les Barthelemy,"121 avenue de l'Opéra, 75012 Paris",75012,48.860114,2.386913,Thaïlandais,,30-50,Moyenne gamme,3.9,445,Terrasse,0163106117,false
Colas & Bourdon,"71 avenue des Champs-Élysées, 75007 Paris",75007,48.904984,2.324818,Américain,Crêperie,10-20,Bon marché,3.6,819,Terrasse,0151818135,false
Aux Délicieux de la Place,"123 rue Réaumur, 75019 Paris",75019,48.817245,2.358737,Italien,,50-100,Haut de gamme,4.4,940,Historique,0141458785,true
Les Délicieux de la Place,"106 rue Cler, 75005 Paris",75005,48.931257,2.261561,Marocain,Brasserie,20-30,Moyenne gamme,3.7,569,Traditionnel,0181774798,true
Les Leroy,"93 boulevard de Grenelle, 75007 Paris",75007,48.869832,2.317372,Brésilien,Crêperie,30-50,Moyenne gamme,3.4,730,Traditionnel,0142871227,true
Costa & Germain,"13 avenue de Clichy, 75002 Paris",75002,48.811409,2.262844,Gastronomique,Grecque,10-20,Bon marché,4.9,904,Festif,0178724683,true
Coulon,"29 rue du Commerce, 75006 Paris",75006,48.949692,2.375619,Végan,Brésilien,100+,Haut de gamme,4.3,205,Branché,0197654569,true
